{
  "results": [
    {
      "objectId": "yrLttqwBkq",
      "location": {
        "__type": "GeoPoint",
        "latitude": 19.52442,
        "longitude": -154.92219
      },
      "cityId": 6478390,
      "name": "#1 Kaimu Bay Hawaii",
      "country": {
        "__type": "Pointer",
        "className": "Continentscountriescities_Country",
        "objectId": "BXkZTl2omc"
      },
      "adminCode": "HI",
      "createdAt": "2020-05-07T19:00:12.396Z",
      "updatedAt": "2020-05-07T19:00:12.396Z"
    },
    {
      "objectId": "fHVwBacYMB",
      "location": {
        "__type": "GeoPoint",
        "latitude": 40.39971,
        "longitude": 0.41695
      },
      "cityId": 9409819,
      "name": "& Spa Acualandia",
      "country": {
        "__type": "Pointer",
        "className": "Continentscountriescities_Country",
        "objectId": "5Vs8zprtNC"
      },
      "province": {
        "__type": "Pointer",
        "className": "Continentscountriescities_Subdivisions_States_Provinces",
        "objectId": "h2soFGCxwY"
      },
      "adminCode": "60",
      "createdAt": "2020-05-15T03:32:19.770Z",
      "updatedAt": "2020-05-15T03:32:19.770Z"
    },
    {
      "objectId": "RWEC3k6Ck4",
      "location": {
        "__type": "GeoPoint",
        "latitude": 11.15583,
        "longitude": 42.7125
      },
      "cityId": 225284,
      "name": "'Ali Sabieh",
      "country": {
        "__type": "Pointer",
        "className": "Continentscountriescities_Country",
        "objectId": "DKDsqKRrNW"
      },
      "adminCode": "01",
      "createdAt": "2019-12-09T22:24:48.871Z",
      "updatedAt": "2019-12-09T22:24:48.871Z"
    },
    {
      "objectId": "Q0Om9Xz5V2",
      "location": {
        "__type": "GeoPoint",
        "latitude": 51.65594,
        "longitude": 4.94076
      },
      "cityId": 2747371,
      "name": "'s Gravenmoer",
      "country": {
        "__type": "Pointer",
        "className": "Continentscountriescities_Country",
        "objectId": "9FyUSGZNnf"
      },
      "adminCode": "06",
      "createdAt": "2019-12-10T13:28:58.243Z",
      "updatedAt": "2019-12-10T13:28:58.243Z"
    },
    {
      "objectId": "cCF17fmdte",
      "location": {
        "__type": "GeoPoint",
        "latitude": 51.92336,
        "longitude": 4.55315
      },
      "cityId": 8379268,
      "name": "'s-Gravenland",
      "country": {
        "__type": "Pointer",
        "className": "Continentscountriescities_Country",
        "objectId": "9FyUSGZNnf"
      },
      "adminCode": "11",
      "createdAt": "2019-12-10T13:56:07.358Z",
      "updatedAt": "2019-12-10T13:56:07.358Z"
    },
    {
      "objectId": "H5B6gjKfWt",
      "location": {
        "__type": "GeoPoint",
        "latitude": 52.00167,
        "longitude": 4.16528
      },
      "cityId": 2747364,
      "name": "'s-Gravenzande",
      "country": {
        "__type": "Pointer",
        "className": "Continentscountriescities_Country",
        "objectId": "9FyUSGZNnf"
      },
      "adminCode": "11",
      "createdAt": "2019-12-10T13:28:58.243Z",
      "updatedAt": "2019-12-10T13:28:58.243Z"
    },
    {
      "objectId": "SYsXsxarZP",
      "location": {
        "__type": "GeoPoint",
        "latitude": 51.8767,
        "longitude": 6.25877
      },
      "cityId": 2747357,
      "name": "'s-Heerenberg",
      "country": {
        "__type": "Pointer",
        "className": "Continentscountriescities_Country",
        "objectId": "9FyUSGZNnf"
      },
      "adminCode": "03",
      "createdAt": "2019-12-10T13:28:58.243Z",
      "updatedAt": "2019-12-10T13:28:58.243Z"
    },
    {
      "objectId": "BWcSyxTggx",
      "location": {
        "__type": "GeoPoint",
        "latitude": 51.69917,
        "longitude": 5.30417
      },
      "cityId": 2747351,
      "name": "'s-Hertogenbosch",
      "country": {
        "__type": "Pointer",
        "className": "Continentscountriescities_Country",
        "objectId": "9FyUSGZNnf"
      },
      "adminCode": "06",
      "createdAt": "2019-12-10T13:28:58.243Z",
      "updatedAt": "2019-12-10T13:28:58.243Z"
    },
    {
      "objectId": "82wln3TWRq",
      "location": {
        "__type": "GeoPoint",
        "latitude": 51.44943,
        "longitude": 5.51926
      },
      "cityId": 2746354,
      "name": "'t Hofke",
      "country": {
        "__type": "Pointer",
        "className": "Continentscountriescities_Country",
        "objectId": "9FyUSGZNnf"
      },
      "adminCode": "06",
      "createdAt": "2019-12-10T13:28:52.339Z",
      "updatedAt": "2019-12-10T13:28:52.339Z"
    },
    {
      "objectId": "ktZyFI0HtA",
      "location": {
        "__type": "GeoPoint",
        "latitude": 52.83667,
        "longitude": 4.75556
      },
      "cityId": 2746031,
      "name": "'t Zand",
      "country": {
        "__type": "Pointer",
        "className": "Continentscountriescities_Country",
        "objectId": "9FyUSGZNnf"
      },
      "adminCode": "07",
      "createdAt": "2019-12-10T13:28:49.396Z",
      "updatedAt": "2019-12-10T13:28:49.396Z"
    },
    {
      "objectId": "mb9r5OPJg0",
      "location": {
        "__type": "GeoPoint",
        "latitude": 52.10605,
        "longitude": 5.19981
      },
      "cityId": 8349499,
      "name": "(Bicycle) Parking Landgoed Beerschoten",
      "country": {
        "__type": "Pointer",
        "className": "Continentscountriescities_Country",
        "objectId": "9FyUSGZNnf"
      },
      "adminCode": "09",
      "createdAt": "2020-05-12T08:57:35.169Z",
      "updatedAt": "2020-05-12T08:57:35.169Z"
    },
    {
      "objectId": "6cEcf7gIt3",
      "location": {
        "__type": "GeoPoint",
        "latitude": 48.96303,
        "longitude": 15.40453
      },
      "cityId": 10942985,
      "name": "(Krokovický les [Písečné])",
      "country": {
        "__type": "Pointer",
        "className": "Continentscountriescities_Country",
        "objectId": "sbCG0KlS9w"
      },
      "adminCode": "03",
      "createdAt": "2020-05-07T21:36:07.757Z",
      "updatedAt": "2020-05-07T21:36:07.757Z"
    },
    {
      "objectId": "JFuOedaL5O",
      "location": {
        "__type": "GeoPoint",
        "latitude": 42.46798,
        "longitude": 19.2671
      },
      "cityId": 12123435,
      "name": "(former) Roman Catholic Diocese of Doclea",
      "country": {
        "__type": "Pointer",
        "className": "Continentscountriescities_Country",
        "objectId": "wY0pApCtUt"
      },
      "adminCode": "16",
      "createdAt": "2020-05-08T14:48:45.403Z",
      "updatedAt": "2020-05-08T14:48:45.403Z"
    },
    {
      "objectId": "ZAdm81JixW",
      "location": {
        "__type": "GeoPoint",
        "latitude": 52.84899,
        "longitude": 5.57368
      },
      "cityId": 6949950,
      "name": "(t) Zwaantje",
      "country": {
        "__type": "Pointer",
        "className": "Continentscountriescities_Country",
        "objectId": "9FyUSGZNnf"
      },
      "adminCode": "02",
      "createdAt": "2020-05-12T08:18:40.003Z",
      "updatedAt": "2020-05-12T08:18:40.003Z"
    },
    {
      "objectId": "RKpwgkuq8u",
      "location": {
        "__type": "GeoPoint",
        "latitude": 45.83749,
        "longitude": -106.66975
      },
      "cityId": 5613785,
      "name": "01N41E17BBBB01 Well",
      "country": {
        "__type": "Pointer",
        "className": "Continentscountriescities_Country",
        "objectId": "BXkZTl2omc"
      },
      "adminCode": "MT",
      "createdAt": "2020-05-15T16:17:32.876Z",
      "updatedAt": "2020-05-15T16:17:32.876Z"
    },
    {
      "objectId": "x4VlnRjfcO",
      "location": {
        "__type": "GeoPoint",
        "latitude": 45.83999,
        "longitude": -106.67419
      },
      "cityId": 5613786,
      "name": "01N41E18ADCC01 Well",
      "country": {
        "__type": "Pointer",
        "className": "Continentscountriescities_Country",
        "objectId": "BXkZTl2omc"
      },
      "adminCode": "MT",
      "createdAt": "2020-05-15T16:17:33.009Z",
      "updatedAt": "2020-05-15T16:17:33.009Z"
    },
    {
      "objectId": "kXYpHxNBAG",
      "location": {
        "__type": "GeoPoint",
        "latitude": 45.83999,
        "longitude": -106.67419
      },
      "cityId": 5613787,
      "name": "01N41E18ADCC02 Well",
      "country": {
        "__type": "Pointer",
        "className": "Continentscountriescities_Country",
        "objectId": "BXkZTl2omc"
      },
      "adminCode": "MT",
      "createdAt": "2020-05-15T16:17:33.130Z",
      "updatedAt": "2020-05-15T16:17:33.130Z"
    },
    {
      "objectId": "Ab5O5VFJyO",
      "location": {
        "__type": "GeoPoint",
        "latitude": 45.8225,
        "longitude": -106.63003
      },
      "cityId": 5613788,
      "name": "01N41E21DADA01 Well",
      "country": {
        "__type": "Pointer",
        "className": "Continentscountriescities_Country",
        "objectId": "BXkZTl2omc"
      },
      "adminCode": "MT",
      "createdAt": "2020-05-15T16:17:42.171Z",
      "updatedAt": "2020-05-15T16:17:42.171Z"
    },
    {
      "objectId": "hiV6oB7cli",
      "location": {
        "__type": "GeoPoint",
        "latitude": 45.82277,
        "longitude": -106.63003
      },
      "cityId": 5613789,
      "name": "01N41E21DADA02 Well",
      "country": {
        "__type": "Pointer",
        "className": "Continentscountriescities_Country",
        "objectId": "BXkZTl2omc"
      },
      "adminCode": "MT",
      "createdAt": "2020-05-15T16:17:42.277Z",
      "updatedAt": "2020-05-15T16:17:42.277Z"
    },
    {
      "objectId": "svQ6H7zA6f",
      "location": {
        "__type": "GeoPoint",
        "latitude": 45.8225,
        "longitude": -106.6303
      },
      "cityId": 5613790,
      "name": "01N41E21DADB01 Well",
      "country": {
        "__type": "Pointer",
        "className": "Continentscountriescities_Country",
        "objectId": "BXkZTl2omc"
      },
      "adminCode": "MT",
      "createdAt": "2020-05-15T16:17:42.428Z",
      "updatedAt": "2020-05-15T16:17:42.428Z"
    },
    {
      "objectId": "UrkdCVojpk",
      "location": {
        "__type": "GeoPoint",
        "latitude": 45.82194,
        "longitude": -106.6303
      },
      "cityId": 5613791,
      "name": "01N41E21DADC01 Well",
      "country": {
        "__type": "Pointer",
        "className": "Continentscountriescities_Country",
        "objectId": "BXkZTl2omc"
      },
      "adminCode": "MT",
      "createdAt": "2020-05-15T16:17:42.600Z",
      "updatedAt": "2020-05-15T16:17:42.600Z"
    },
    {
      "objectId": "acHFYnZXmO",
      "location": {
        "__type": "GeoPoint",
        "latitude": 45.82194,
        "longitude": -106.6303
      },
      "cityId": 5613792,
      "name": "01N41E21DADC02 Well",
      "country": {
        "__type": "Pointer",
        "className": "Continentscountriescities_Country",
        "objectId": "BXkZTl2omc"
      },
      "adminCode": "MT",
      "createdAt": "2020-05-15T16:17:42.684Z",
      "updatedAt": "2020-05-15T16:17:42.684Z"
    },
    {
      "objectId": "lIYQpKa3iG",
      "location": {
        "__type": "GeoPoint",
        "latitude": 45.82249,
        "longitude": -106.63558
      },
      "cityId": 5613793,
      "name": "01N41E21DBDB01 Well",
      "country": {
        "__type": "Pointer",
        "className": "Continentscountriescities_Country",
        "objectId": "BXkZTl2omc"
      },
      "adminCode": "MT",
      "createdAt": "2020-05-15T16:17:49.643Z",
      "updatedAt": "2020-05-15T16:17:49.643Z"
    },
    {
      "objectId": "DjpM3tFiXD",
      "location": {
        "__type": "GeoPoint",
        "latitude": 45.82277,
        "longitude": -106.6353
      },
      "cityId": 5613794,
      "name": "01N41E21DBDB02 Well",
      "country": {
        "__type": "Pointer",
        "className": "Continentscountriescities_Country",
        "objectId": "BXkZTl2omc"
      },
      "adminCode": "MT",
      "createdAt": "2020-05-15T16:17:49.766Z",
      "updatedAt": "2020-05-15T16:17:49.766Z"
    },
    {
      "objectId": "Jm6bXTKuv1",
      "location": {
        "__type": "GeoPoint",
        "latitude": 45.82944,
        "longitude": -106.61086
      },
      "cityId": 5613795,
      "name": "01N41E22AACA01 Well",
      "country": {
        "__type": "Pointer",
        "className": "Continentscountriescities_Country",
        "objectId": "BXkZTl2omc"
      },
      "adminCode": "MT",
      "createdAt": "2020-05-15T16:17:49.881Z",
      "updatedAt": "2020-05-15T16:17:49.881Z"
    },
    {
      "objectId": "ioy2FAZwEU",
      "location": {
        "__type": "GeoPoint",
        "latitude": 45.82861,
        "longitude": -106.61308
      },
      "cityId": 5613796,
      "name": "01N41E22AACC01 Well",
      "country": {
        "__type": "Pointer",
        "className": "Continentscountriescities_Country",
        "objectId": "BXkZTl2omc"
      },
      "adminCode": "MT",
      "createdAt": "2020-05-15T16:17:50.012Z",
      "updatedAt": "2020-05-15T16:17:50.012Z"
    },
    {
      "objectId": "6uHA2cP43o",
      "location": {
        "__type": "GeoPoint",
        "latitude": 45.82861,
        "longitude": -106.61808
      },
      "cityId": 5613797,
      "name": "01N41E22ABCC01 Well",
      "country": {
        "__type": "Pointer",
        "className": "Continentscountriescities_Country",
        "objectId": "BXkZTl2omc"
      },
      "adminCode": "MT",
      "createdAt": "2020-05-15T16:17:50.172Z",
      "updatedAt": "2020-05-15T16:17:50.172Z"
    },
    {
      "objectId": "h8Jr2tCksp",
      "location": {
        "__type": "GeoPoint",
        "latitude": 45.82861,
        "longitude": -106.61391
      },
      "cityId": 5613798,
      "name": "01N41E22ABDD01 Well",
      "country": {
        "__type": "Pointer",
        "className": "Continentscountriescities_Country",
        "objectId": "BXkZTl2omc"
      },
      "adminCode": "MT",
      "createdAt": "2020-05-15T16:17:50.348Z",
      "updatedAt": "2020-05-15T16:17:50.348Z"
    },
    {
      "objectId": "wAHiRTLp38",
      "location": {
        "__type": "GeoPoint",
        "latitude": 45.82472,
        "longitude": -106.6153
      },
      "cityId": 5613799,
      "name": "01N41E22ACDC01 Well",
      "country": {
        "__type": "Pointer",
        "className": "Continentscountriescities_Country",
        "objectId": "BXkZTl2omc"
      },
      "adminCode": "MT",
      "createdAt": "2020-05-15T16:17:50.440Z",
      "updatedAt": "2020-05-15T16:17:50.440Z"
    },
    {
      "objectId": "dxLQ8fy8zY",
      "location": {
        "__type": "GeoPoint",
        "latitude": 45.82472,
        "longitude": -106.6153
      },
      "cityId": 5613800,
      "name": "01N41E22ACDC02 Well",
      "country": {
        "__type": "Pointer",
        "className": "Continentscountriescities_Country",
        "objectId": "BXkZTl2omc"
      },
      "adminCode": "MT",
      "createdAt": "2020-05-15T16:17:50.552Z",
      "updatedAt": "2020-05-15T16:17:50.552Z"
    },
    {
      "objectId": "J9fG52Kq7r",
      "location": {
        "__type": "GeoPoint",
        "latitude": 45.82694,
        "longitude": -106.60891
      },
      "cityId": 5613801,
      "name": "01N41E22ADAD01 Well",
      "country": {
        "__type": "Pointer",
        "className": "Continentscountriescities_Country",
        "objectId": "BXkZTl2omc"
      },
      "adminCode": "MT",
      "createdAt": "2020-05-15T16:17:50.669Z",
      "updatedAt": "2020-05-15T16:17:50.669Z"
    },
    {
      "objectId": "rVO41LR9Ru",
      "location": {
        "__type": "GeoPoint",
        "latitude": 45.83166,
        "longitude": -106.62002
      },
      "cityId": 5613802,
      "name": "01N41E22BAAB01 Well",
      "country": {
        "__type": "Pointer",
        "className": "Continentscountriescities_Country",
        "objectId": "BXkZTl2omc"
      },
      "adminCode": "MT",
      "createdAt": "2020-05-15T16:17:50.811Z",
      "updatedAt": "2020-05-15T16:17:50.811Z"
    },
    {
      "objectId": "QLsKXQAxIw",
      "location": {
        "__type": "GeoPoint",
        "latitude": 45.825,
        "longitude": -106.62197
      },
      "cityId": 5613803,
      "name": "01N41E22CABD01 Well",
      "country": {
        "__type": "Pointer",
        "className": "Continentscountriescities_Country",
        "objectId": "BXkZTl2omc"
      },
      "adminCode": "MT",
      "createdAt": "2020-05-15T16:17:50.955Z",
      "updatedAt": "2020-05-15T16:17:50.955Z"
    },
    {
      "objectId": "1kKWJQEYUZ",
      "location": {
        "__type": "GeoPoint",
        "latitude": 45.82166,
        "longitude": -106.62308
      },
      "cityId": 5613804,
      "name": "01N41E22CACC01 Well",
      "country": {
        "__type": "Pointer",
        "className": "Continentscountriescities_Country",
        "objectId": "BXkZTl2omc"
      },
      "adminCode": "MT",
      "createdAt": "2020-05-15T16:17:51.024Z",
      "updatedAt": "2020-05-15T16:17:51.024Z"
    },
    {
      "objectId": "G2GZmZFkd8",
      "location": {
        "__type": "GeoPoint",
        "latitude": 45.82055,
        "longitude": -106.62391
      },
      "cityId": 5613805,
      "name": "01N41E22CCAD01 Well",
      "country": {
        "__type": "Pointer",
        "className": "Continentscountriescities_Country",
        "objectId": "BXkZTl2omc"
      },
      "adminCode": "MT",
      "createdAt": "2020-05-15T16:17:51.149Z",
      "updatedAt": "2020-05-15T16:17:51.149Z"
    },
    {
      "objectId": "aNuZuzmM3V",
      "location": {
        "__type": "GeoPoint",
        "latitude": 45.82027,
        "longitude": -106.62419
      },
      "cityId": 5613806,
      "name": "01N41E22CCAD02 Well",
      "country": {
        "__type": "Pointer",
        "className": "Continentscountriescities_Country",
        "objectId": "BXkZTl2omc"
      },
      "adminCode": "MT",
      "createdAt": "2020-05-15T16:17:51.250Z",
      "updatedAt": "2020-05-15T16:17:51.250Z"
    },
    {
      "objectId": "sqkjjHoBOY",
      "location": {
        "__type": "GeoPoint",
        "latitude": 45.82083,
        "longitude": -106.62364
      },
      "cityId": 5613807,
      "name": "01N41E22CCAD03 Well",
      "country": {
        "__type": "Pointer",
        "className": "Continentscountriescities_Country",
        "objectId": "BXkZTl2omc"
      },
      "adminCode": "MT",
      "createdAt": "2020-05-15T16:17:51.391Z",
      "updatedAt": "2020-05-15T16:17:51.391Z"
    },
    {
      "objectId": "lBy9M2ruWN",
      "location": {
        "__type": "GeoPoint",
        "latitude": 45.81777,
        "longitude": -106.62558
      },
      "cityId": 5613808,
      "name": "01N41E22CCDC01 Well",
      "country": {
        "__type": "Pointer",
        "className": "Continentscountriescities_Country",
        "objectId": "BXkZTl2omc"
      },
      "adminCode": "MT",
      "createdAt": "2020-05-15T16:17:51.518Z",
      "updatedAt": "2020-05-15T16:17:51.518Z"
    },
    {
      "objectId": "IMHAgMkQop",
      "location": {
        "__type": "GeoPoint",
        "latitude": 45.81916,
        "longitude": -106.62614
      },
      "cityId": 5613809,
      "name": "01N41E22CC__01 Well",
      "country": {
        "__type": "Pointer",
        "className": "Continentscountriescities_Country",
        "objectId": "BXkZTl2omc"
      },
      "adminCode": "MT",
      "createdAt": "2020-05-15T16:17:51.659Z",
      "updatedAt": "2020-05-15T16:17:51.659Z"
    },
    {
      "objectId": "7H1V4Cu3AL",
      "location": {
        "__type": "GeoPoint",
        "latitude": 45.81666,
        "longitude": -106.61447
      },
      "cityId": 5613810,
      "name": "01N41E22CDDC01 Well",
      "country": {
        "__type": "Pointer",
        "className": "Continentscountriescities_Country",
        "objectId": "BXkZTl2omc"
      },
      "adminCode": "MT",
      "createdAt": "2020-05-15T16:17:51.788Z",
      "updatedAt": "2020-05-15T16:17:51.788Z"
    },
    {
      "objectId": "DZ31kohJXc",
      "location": {
        "__type": "GeoPoint",
        "latitude": 45.81638,
        "longitude": -106.61502
      },
      "cityId": 5613811,
      "name": "01N41E22CDDD01 Well",
      "country": {
        "__type": "Pointer",
        "className": "Continentscountriescities_Country",
        "objectId": "BXkZTl2omc"
      },
      "adminCode": "MT",
      "createdAt": "2020-05-15T16:17:51.900Z",
      "updatedAt": "2020-05-15T16:17:51.900Z"
    },
    {
      "objectId": "Cn3yfvoQN9",
      "location": {
        "__type": "GeoPoint",
        "latitude": 45.82333,
        "longitude": -106.60919
      },
      "cityId": 5613812,
      "name": "01N41E22DAA_01 Well",
      "country": {
        "__type": "Pointer",
        "className": "Continentscountriescities_Country",
        "objectId": "BXkZTl2omc"
      },
      "adminCode": "MT",
      "createdAt": "2020-05-15T16:17:52.011Z",
      "updatedAt": "2020-05-15T16:17:52.011Z"
    },
    {
      "objectId": "yHZPtd2cIH",
      "location": {
        "__type": "GeoPoint",
        "latitude": 45.82444,
        "longitude": -106.61502
      },
      "cityId": 5613813,
      "name": "01N41E22DBAB01 Well",
      "country": {
        "__type": "Pointer",
        "className": "Continentscountriescities_Country",
        "objectId": "BXkZTl2omc"
      },
      "adminCode": "MT",
      "createdAt": "2020-05-15T16:17:52.115Z",
      "updatedAt": "2020-05-15T16:17:52.115Z"
    },
    {
      "objectId": "bFpjIWCjc0",
      "location": {
        "__type": "GeoPoint",
        "latitude": 45.81777,
        "longitude": -106.61669
      },
      "cityId": 5613814,
      "name": "01N41E22DCCD01 Well",
      "country": {
        "__type": "Pointer",
        "className": "Continentscountriescities_Country",
        "objectId": "BXkZTl2omc"
      },
      "adminCode": "MT",
      "createdAt": "2020-05-15T16:17:52.231Z",
      "updatedAt": "2020-05-15T16:17:52.231Z"
    },
    {
      "objectId": "7n1mMzc34q",
      "location": {
        "__type": "GeoPoint",
        "latitude": 45.83027,
        "longitude": -106.60558
      },
      "cityId": 5613815,
      "name": "01N41E23BBBD01 Well",
      "country": {
        "__type": "Pointer",
        "className": "Continentscountriescities_Country",
        "objectId": "BXkZTl2omc"
      },
      "adminCode": "MT",
      "createdAt": "2020-05-15T16:17:52.353Z",
      "updatedAt": "2020-05-15T16:17:52.353Z"
    },
    {
      "objectId": "QjHFlJn8mR",
      "location": {
        "__type": "GeoPoint",
        "latitude": 45.8275,
        "longitude": -106.60502
      },
      "cityId": 5613816,
      "name": "01N41E23BCAC01 Well",
      "country": {
        "__type": "Pointer",
        "className": "Continentscountriescities_Country",
        "objectId": "BXkZTl2omc"
      },
      "adminCode": "MT",
      "createdAt": "2020-05-15T16:17:52.511Z",
      "updatedAt": "2020-05-15T16:17:52.511Z"
    },
    {
      "objectId": "issUgBjXJ4",
      "location": {
        "__type": "GeoPoint",
        "latitude": 45.82694,
        "longitude": -106.60502
      },
      "cityId": 5613817,
      "name": "01N41E23BCDB01 Well",
      "country": {
        "__type": "Pointer",
        "className": "Continentscountriescities_Country",
        "objectId": "BXkZTl2omc"
      },
      "adminCode": "MT",
      "createdAt": "2020-05-15T16:17:52.854Z",
      "updatedAt": "2020-05-15T16:17:52.854Z"
    },
    {
      "objectId": "sIaONiF3Zo",
      "location": {
        "__type": "GeoPoint",
        "latitude": 45.82694,
        "longitude": -106.60502
      },
      "cityId": 5613818,
      "name": "01N41E23BCDB02 Well",
      "country": {
        "__type": "Pointer",
        "className": "Continentscountriescities_Country",
        "objectId": "BXkZTl2omc"
      },
      "adminCode": "MT",
      "createdAt": "2020-05-15T16:17:52.969Z",
      "updatedAt": "2020-05-15T16:17:52.969Z"
    },
    {
      "objectId": "9OP9PaQJ4t",
      "location": {
        "__type": "GeoPoint",
        "latitude": 45.82805,
        "longitude": -106.60475
      },
      "cityId": 5613819,
      "name": "01N41E23BCDC01 Well",
      "country": {
        "__type": "Pointer",
        "className": "Continentscountriescities_Country",
        "objectId": "BXkZTl2omc"
      },
      "adminCode": "MT",
      "createdAt": "2020-05-15T16:17:53.076Z",
      "updatedAt": "2020-05-15T16:17:53.076Z"
    },
    {
      "objectId": "4J0YHJVGiB",
      "location": {
        "__type": "GeoPoint",
        "latitude": 45.82555,
        "longitude": -106.60586
      },
      "cityId": 5613820,
      "name": "01N41E23BCDD01 Well",
      "country": {
        "__type": "Pointer",
        "className": "Continentscountriescities_Country",
        "objectId": "BXkZTl2omc"
      },
      "adminCode": "MT",
      "createdAt": "2020-05-15T16:17:53.178Z",
      "updatedAt": "2020-05-15T16:17:53.178Z"
    },
    {
      "objectId": "8qUJN8ps9H",
      "location": {
        "__type": "GeoPoint",
        "latitude": 45.82472,
        "longitude": -106.6053
      },
      "cityId": 5613821,
      "name": "01N41E23CBAB01 Well",
      "country": {
        "__type": "Pointer",
        "className": "Continentscountriescities_Country",
        "objectId": "BXkZTl2omc"
      },
      "adminCode": "MT",
      "createdAt": "2020-05-15T16:17:53.314Z",
      "updatedAt": "2020-05-15T16:17:53.314Z"
    },
    {
      "objectId": "oEVRMEEVnD",
      "location": {
        "__type": "GeoPoint",
        "latitude": 45.82472,
        "longitude": -106.60558
      },
      "cityId": 5613822,
      "name": "01N41E23CBBA01 Well",
      "country": {
        "__type": "Pointer",
        "className": "Continentscountriescities_Country",
        "objectId": "BXkZTl2omc"
      },
      "adminCode": "MT",
      "createdAt": "2020-05-15T16:17:53.403Z",
      "updatedAt": "2020-05-15T16:17:53.403Z"
    },
    {
      "objectId": "rMrfc9dPSA",
      "location": {
        "__type": "GeoPoint",
        "latitude": 45.81916,
        "longitude": -106.6053
      },
      "cityId": 5613823,
      "name": "01N41E23CC__01 Well",
      "country": {
        "__type": "Pointer",
        "className": "Continentscountriescities_Country",
        "objectId": "BXkZTl2omc"
      },
      "adminCode": "MT",
      "createdAt": "2020-05-15T16:17:53.520Z",
      "updatedAt": "2020-05-15T16:17:53.520Z"
    },
    {
      "objectId": "XP3p3JOmqK",
      "location": {
        "__type": "GeoPoint",
        "latitude": 45.82333,
        "longitude": -106.5778
      },
      "cityId": 5613824,
      "name": "01N41E24CAAD01 Well",
      "country": {
        "__type": "Pointer",
        "className": "Continentscountriescities_Country",
        "objectId": "BXkZTl2omc"
      },
      "adminCode": "MT",
      "createdAt": "2020-05-15T16:17:53.634Z",
      "updatedAt": "2020-05-15T16:17:53.634Z"
    },
    {
      "objectId": "bgh7G9jm6N",
      "location": {
        "__type": "GeoPoint",
        "latitude": 45.82333,
        "longitude": -106.58086
      },
      "cityId": 5613825,
      "name": "01N41E24CABC01 Well",
      "country": {
        "__type": "Pointer",
        "className": "Continentscountriescities_Country",
        "objectId": "BXkZTl2omc"
      },
      "adminCode": "MT",
      "createdAt": "2020-05-15T16:17:53.894Z",
      "updatedAt": "2020-05-15T16:17:53.894Z"
    },
    {
      "objectId": "L07JTCeCkH",
      "location": {
        "__type": "GeoPoint",
        "latitude": 45.82333,
        "longitude": -106.58613
      },
      "cityId": 5613826,
      "name": "01N41E24CBBC01 Well",
      "country": {
        "__type": "Pointer",
        "className": "Continentscountriescities_Country",
        "objectId": "BXkZTl2omc"
      },
      "adminCode": "MT",
      "createdAt": "2020-05-15T16:17:54.013Z",
      "updatedAt": "2020-05-15T16:17:54.013Z"
    },
    {
      "objectId": "zQAXW7qlek",
      "location": {
        "__type": "GeoPoint",
        "latitude": 45.82111,
        "longitude": -106.58252
      },
      "cityId": 5613827,
      "name": "01N41E24CCAA01 Spring",
      "country": {
        "__type": "Pointer",
        "className": "Continentscountriescities_Country",
        "objectId": "BXkZTl2omc"
      },
      "adminCode": "MT",
      "createdAt": "2020-05-15T16:17:54.126Z",
      "updatedAt": "2020-05-15T16:17:54.126Z"
    },
    {
      "objectId": "Ga1dq8AZ0K",
      "location": {
        "__type": "GeoPoint",
        "latitude": 45.82055,
        "longitude": -106.58613
      },
      "cityId": 5613828,
      "name": "01N41E24CCBB01 Well",
      "country": {
        "__type": "Pointer",
        "className": "Continentscountriescities_Country",
        "objectId": "BXkZTl2omc"
      },
      "adminCode": "MT",
      "createdAt": "2020-05-15T16:17:54.451Z",
      "updatedAt": "2020-05-15T16:17:54.451Z"
    },
    {
      "objectId": "rupHvlSCsK",
      "location": {
        "__type": "GeoPoint",
        "latitude": 45.82027,
        "longitude": -106.57113
      },
      "cityId": 5613829,
      "name": "01N41E24DDBB01 Well",
      "country": {
        "__type": "Pointer",
        "className": "Continentscountriescities_Country",
        "objectId": "BXkZTl2omc"
      },
      "adminCode": "MT",
      "createdAt": "2020-05-15T16:17:54.547Z",
      "updatedAt": "2020-05-15T16:17:54.547Z"
    },
    {
      "objectId": "6c9QfCj4nJ",
      "location": {
        "__type": "GeoPoint",
        "latitude": 45.80694,
        "longitude": -106.60863
      },
      "cityId": 5613830,
      "name": "01N41E25CDDC01 Well",
      "country": {
        "__type": "Pointer",
        "className": "Continentscountriescities_Country",
        "objectId": "BXkZTl2omc"
      },
      "adminCode": "MT",
      "createdAt": "2020-05-15T16:17:54.829Z",
      "updatedAt": "2020-05-15T16:17:54.829Z"
    },
    {
      "objectId": "XC3PKKjXBv",
      "location": {
        "__type": "GeoPoint",
        "latitude": 45.80611,
        "longitude": -106.57113
      },
      "cityId": 5613831,
      "name": "01N41E25DDBB01 Well",
      "country": {
        "__type": "Pointer",
        "className": "Continentscountriescities_Country",
        "objectId": "BXkZTl2omc"
      },
      "adminCode": "MT",
      "createdAt": "2020-05-15T16:17:54.952Z",
      "updatedAt": "2020-05-15T16:17:54.952Z"
    },
    {
      "objectId": "85mJuHvoqV",
      "location": {
        "__type": "GeoPoint",
        "latitude": 45.81694,
        "longitude": -106.60697
      },
      "cityId": 5613832,
      "name": "01N41E26BBBB01 Well",
      "country": {
        "__type": "Pointer",
        "className": "Continentscountriescities_Country",
        "objectId": "BXkZTl2omc"
      },
      "adminCode": "MT",
      "createdAt": "2020-05-15T16:17:55.074Z",
      "updatedAt": "2020-05-15T16:17:55.074Z"
    },
    {
      "objectId": "LN7MDtPeEa",
      "location": {
        "__type": "GeoPoint",
        "latitude": 45.81694,
        "longitude": -106.60697
      },
      "cityId": 5613833,
      "name": "01N41E26BBBB02 Well",
      "country": {
        "__type": "Pointer",
        "className": "Continentscountriescities_Country",
        "objectId": "BXkZTl2omc"
      },
      "adminCode": "MT",
      "createdAt": "2020-05-15T16:17:55.192Z",
      "updatedAt": "2020-05-15T16:17:55.192Z"
    },
    {
      "objectId": "jucg3gMz9h",
      "location": {
        "__type": "GeoPoint",
        "latitude": 45.81361,
        "longitude": -106.60391
      },
      "cityId": 5613834,
      "name": "01N41E26BBDC01 Well",
      "country": {
        "__type": "Pointer",
        "className": "Continentscountriescities_Country",
        "objectId": "BXkZTl2omc"
      },
      "adminCode": "MT",
      "createdAt": "2020-05-15T16:17:55.269Z",
      "updatedAt": "2020-05-15T16:17:55.269Z"
    },
    {
      "objectId": "yF1JBAY51B",
      "location": {
        "__type": "GeoPoint",
        "latitude": 45.81333,
        "longitude": -106.60502
      },
      "cityId": 5613835,
      "name": "01N41E26BCAB01 Well",
      "country": {
        "__type": "Pointer",
        "className": "Continentscountriescities_Country",
        "objectId": "BXkZTl2omc"
      },
      "adminCode": "MT",
      "createdAt": "2020-05-15T16:17:55.377Z",
      "updatedAt": "2020-05-15T16:17:55.377Z"
    },
    {
      "objectId": "GlNNEyF7ku",
      "location": {
        "__type": "GeoPoint",
        "latitude": 45.81333,
        "longitude": -106.60419
      },
      "cityId": 5613836,
      "name": "01N41E26CBAA01 Well",
      "country": {
        "__type": "Pointer",
        "className": "Continentscountriescities_Country",
        "objectId": "BXkZTl2omc"
      },
      "adminCode": "MT",
      "createdAt": "2020-05-15T16:17:55.486Z",
      "updatedAt": "2020-05-15T16:17:55.486Z"
    },
    {
      "objectId": "5fCiSHF0j8",
      "location": {
        "__type": "GeoPoint",
        "latitude": 45.81,
        "longitude": -106.60475
      },
      "cityId": 5613837,
      "name": "01N41E26CBAB01 Well",
      "country": {
        "__type": "Pointer",
        "className": "Continentscountriescities_Country",
        "objectId": "BXkZTl2omc"
      },
      "adminCode": "MT",
      "createdAt": "2020-05-15T16:17:55.619Z",
      "updatedAt": "2020-05-15T16:17:55.619Z"
    },
    {
      "objectId": "sn2atGHKXH",
      "location": {
        "__type": "GeoPoint",
        "latitude": 45.81,
        "longitude": -106.60475
      },
      "cityId": 5613838,
      "name": "01N41E26CBAB02 Well",
      "country": {
        "__type": "Pointer",
        "className": "Continentscountriescities_Country",
        "objectId": "BXkZTl2omc"
      },
      "adminCode": "MT",
      "createdAt": "2020-05-15T16:17:55.705Z",
      "updatedAt": "2020-05-15T16:17:55.705Z"
    },
    {
      "objectId": "taKBgq5mIf",
      "location": {
        "__type": "GeoPoint",
        "latitude": 45.80916,
        "longitude": -106.60502
      },
      "cityId": 5613839,
      "name": "01N41E26CBAC01 Well",
      "country": {
        "__type": "Pointer",
        "className": "Continentscountriescities_Country",
        "objectId": "BXkZTl2omc"
      },
      "adminCode": "MT",
      "createdAt": "2020-05-15T16:17:55.879Z",
      "updatedAt": "2020-05-15T16:17:55.879Z"
    },
    {
      "objectId": "bVmeJH6KnR",
      "location": {
        "__type": "GeoPoint",
        "latitude": 45.80972,
        "longitude": -106.60586
      },
      "cityId": 5613840,
      "name": "01N41E26CBBA01 Well",
      "country": {
        "__type": "Pointer",
        "className": "Continentscountriescities_Country",
        "objectId": "BXkZTl2omc"
      },
      "adminCode": "MT",
      "createdAt": "2020-05-15T16:17:55.992Z",
      "updatedAt": "2020-05-15T16:17:55.992Z"
    },
    {
      "objectId": "Ivwva8R3NS",
      "location": {
        "__type": "GeoPoint",
        "latitude": 45.81472,
        "longitude": -106.60891
      },
      "cityId": 5613842,
      "name": "01N41E27AADD01 Well",
      "country": {
        "__type": "Pointer",
        "className": "Continentscountriescities_Country",
        "objectId": "BXkZTl2omc"
      },
      "adminCode": "MT",
      "createdAt": "2020-05-15T16:17:56.119Z",
      "updatedAt": "2020-05-15T16:17:56.119Z"
    },
    {
      "objectId": "uifkm5RNHm",
      "location": {
        "__type": "GeoPoint",
        "latitude": 45.81472,
        "longitude": -106.60891
      },
      "cityId": 5613844,
      "name": "01N41E27AADD02 Well",
      "country": {
        "__type": "Pointer",
        "className": "Continentscountriescities_Country",
        "objectId": "BXkZTl2omc"
      },
      "adminCode": "MT",
      "createdAt": "2020-05-15T16:17:56.219Z",
      "updatedAt": "2020-05-15T16:17:56.219Z"
    },
    {
      "objectId": "Z9JhMmRdrT",
      "location": {
        "__type": "GeoPoint",
        "latitude": 45.81472,
        "longitude": -106.60891
      },
      "cityId": 5613845,
      "name": "01N41E27AADD03 Well",
      "country": {
        "__type": "Pointer",
        "className": "Continentscountriescities_Country",
        "objectId": "BXkZTl2omc"
      },
      "adminCode": "MT",
      "createdAt": "2020-05-15T16:17:56.328Z",
      "updatedAt": "2020-05-15T16:17:56.328Z"
    },
    {
      "objectId": "u5oBz0JmUF",
      "location": {
        "__type": "GeoPoint",
        "latitude": 45.81694,
        "longitude": -106.61669
      },
      "cityId": 5613846,
      "name": "01N41E27ABBA01 Well",
      "country": {
        "__type": "Pointer",
        "className": "Continentscountriescities_Country",
        "objectId": "BXkZTl2omc"
      },
      "adminCode": "MT",
      "createdAt": "2020-05-15T16:17:56.485Z",
      "updatedAt": "2020-05-15T16:17:56.485Z"
    },
    {
      "objectId": "bGOzMrstBr",
      "location": {
        "__type": "GeoPoint",
        "latitude": 45.81472,
        "longitude": -106.61725
      },
      "cityId": 5613847,
      "name": "01N41E27ABCC01 Well",
      "country": {
        "__type": "Pointer",
        "className": "Continentscountriescities_Country",
        "objectId": "BXkZTl2omc"
      },
      "adminCode": "MT",
      "createdAt": "2020-05-15T16:17:56.610Z",
      "updatedAt": "2020-05-15T16:17:56.610Z"
    },
    {
      "objectId": "CGeWoHNfFX",
      "location": {
        "__type": "GeoPoint",
        "latitude": 45.81472,
        "longitude": -106.61725
      },
      "cityId": 5613848,
      "name": "01N41E27ABCC02 Well",
      "country": {
        "__type": "Pointer",
        "className": "Continentscountriescities_Country",
        "objectId": "BXkZTl2omc"
      },
      "adminCode": "MT",
      "createdAt": "2020-05-15T16:17:56.716Z",
      "updatedAt": "2020-05-15T16:17:56.716Z"
    },
    {
      "objectId": "nw5wvJHeEb",
      "location": {
        "__type": "GeoPoint",
        "latitude": 45.81472,
        "longitude": -106.61725
      },
      "cityId": 5613849,
      "name": "01N41E27ABCC03 Well",
      "country": {
        "__type": "Pointer",
        "className": "Continentscountriescities_Country",
        "objectId": "BXkZTl2omc"
      },
      "adminCode": "MT",
      "createdAt": "2020-05-15T16:17:56.814Z",
      "updatedAt": "2020-05-15T16:17:56.814Z"
    },
    {
      "objectId": "4n6GNT0QNe",
      "location": {
        "__type": "GeoPoint",
        "latitude": 45.81027,
        "longitude": -106.61725
      },
      "cityId": 5613850,
      "name": "01N41E27ACCC01 Well",
      "country": {
        "__type": "Pointer",
        "className": "Continentscountriescities_Country",
        "objectId": "BXkZTl2omc"
      },
      "adminCode": "MT",
      "createdAt": "2020-05-15T16:17:56.933Z",
      "updatedAt": "2020-05-15T16:17:56.933Z"
    },
    {
      "objectId": "VEoD3PYDOJ",
      "location": {
        "__type": "GeoPoint",
        "latitude": 45.81333,
        "longitude": -106.60975
      },
      "cityId": 5613851,
      "name": "01N41E27ADAB01 Well",
      "country": {
        "__type": "Pointer",
        "className": "Continentscountriescities_Country",
        "objectId": "BXkZTl2omc"
      },
      "adminCode": "MT",
      "createdAt": "2020-05-15T16:17:57.045Z",
      "updatedAt": "2020-05-15T16:17:57.045Z"
    },
    {
      "objectId": "NsrcxDPpF0",
      "location": {
        "__type": "GeoPoint",
        "latitude": 45.81333,
        "longitude": -106.60975
      },
      "cityId": 5613852,
      "name": "01N41E27ADAB02 Well",
      "country": {
        "__type": "Pointer",
        "className": "Continentscountriescities_Country",
        "objectId": "BXkZTl2omc"
      },
      "adminCode": "MT",
      "createdAt": "2020-05-15T16:17:57.144Z",
      "updatedAt": "2020-05-15T16:17:57.144Z"
    },
    {
      "objectId": "Tqk8i7Jjys",
      "location": {
        "__type": "GeoPoint",
        "latitude": 45.81222,
        "longitude": -106.6103
      },
      "cityId": 5613853,
      "name": "01N41E27ADAC01 Well",
      "country": {
        "__type": "Pointer",
        "className": "Continentscountriescities_Country",
        "objectId": "BXkZTl2omc"
      },
      "adminCode": "MT",
      "createdAt": "2020-05-15T16:17:57.273Z",
      "updatedAt": "2020-05-15T16:17:57.273Z"
    },
    {
      "objectId": "XmwjFQCwPb",
      "location": {
        "__type": "GeoPoint",
        "latitude": 45.8125,
        "longitude": -106.61002
      },
      "cityId": 5613854,
      "name": "01N41E27ADAC02 Well",
      "country": {
        "__type": "Pointer",
        "className": "Continentscountriescities_Country",
        "objectId": "BXkZTl2omc"
      },
      "adminCode": "MT",
      "createdAt": "2020-05-15T16:17:57.401Z",
      "updatedAt": "2020-05-15T16:17:57.401Z"
    },
    {
      "objectId": "Ec9uIz99Za",
      "location": {
        "__type": "GeoPoint",
        "latitude": 45.81277,
        "longitude": -106.61002
      },
      "cityId": 5613855,
      "name": "01N41E27ADAC03 Well",
      "country": {
        "__type": "Pointer",
        "className": "Continentscountriescities_Country",
        "objectId": "BXkZTl2omc"
      },
      "adminCode": "MT",
      "createdAt": "2020-05-15T16:17:57.502Z",
      "updatedAt": "2020-05-15T16:17:57.502Z"
    },
    {
      "objectId": "zCyjBVkp2V",
      "location": {
        "__type": "GeoPoint",
        "latitude": 45.81138,
        "longitude": -106.61058
      },
      "cityId": 5613856,
      "name": "01N41E27ADCA01 Well",
      "country": {
        "__type": "Pointer",
        "className": "Continentscountriescities_Country",
        "objectId": "BXkZTl2omc"
      },
      "adminCode": "MT",
      "createdAt": "2020-05-15T16:17:57.653Z",
      "updatedAt": "2020-05-15T16:17:57.653Z"
    },
    {
      "objectId": "v50uRzS9rm",
      "location": {
        "__type": "GeoPoint",
        "latitude": 45.81444,
        "longitude": -106.61002
      },
      "cityId": 5613857,
      "name": "01N41E27ADCC01 Well",
      "country": {
        "__type": "Pointer",
        "className": "Continentscountriescities_Country",
        "objectId": "BXkZTl2omc"
      },
      "adminCode": "MT",
      "createdAt": "2020-05-15T16:17:57.759Z",
      "updatedAt": "2020-05-15T16:17:57.759Z"
    },
    {
      "objectId": "Bzsyq4heRu",
      "location": {
        "__type": "GeoPoint",
        "latitude": 45.81166,
        "longitude": -106.61058
      },
      "cityId": 5613858,
      "name": "01N41E27ADDB01 Well",
      "country": {
        "__type": "Pointer",
        "className": "Continentscountriescities_Country",
        "objectId": "BXkZTl2omc"
      },
      "adminCode": "MT",
      "createdAt": "2020-05-15T16:17:57.875Z",
      "updatedAt": "2020-05-15T16:17:57.875Z"
    },
    {
      "objectId": "m4ZRXGzPNp",
      "location": {
        "__type": "GeoPoint",
        "latitude": 45.81194,
        "longitude": -106.6103
      },
      "cityId": 5613859,
      "name": "01N41E27ADDB02 Well",
      "country": {
        "__type": "Pointer",
        "className": "Continentscountriescities_Country",
        "objectId": "BXkZTl2omc"
      },
      "adminCode": "MT",
      "createdAt": "2020-05-15T16:17:58.038Z",
      "updatedAt": "2020-05-15T16:17:58.038Z"
    },
    {
      "objectId": "w8czxniYRM",
      "location": {
        "__type": "GeoPoint",
        "latitude": 45.8175,
        "longitude": -106.61975
      },
      "cityId": 5613860,
      "name": "01N41E27BAAA01 Spring",
      "country": {
        "__type": "Pointer",
        "className": "Continentscountriescities_Country",
        "objectId": "BXkZTl2omc"
      },
      "adminCode": "MT",
      "createdAt": "2020-05-15T16:17:58.408Z",
      "updatedAt": "2020-05-15T16:17:58.408Z"
    },
    {
      "objectId": "TUYMM7Y5q7",
      "location": {
        "__type": "GeoPoint",
        "latitude": 45.81472,
        "longitude": -106.61975
      },
      "cityId": 5613861,
      "name": "01N41E27BADC01 Well",
      "country": {
        "__type": "Pointer",
        "className": "Continentscountriescities_Country",
        "objectId": "BXkZTl2omc"
      },
      "adminCode": "MT",
      "createdAt": "2020-05-15T16:17:58.550Z",
      "updatedAt": "2020-05-15T16:17:58.550Z"
    },
    {
      "objectId": "efY6OQUeL4",
      "location": {
        "__type": "GeoPoint",
        "latitude": 45.81472,
        "longitude": -106.61975
      },
      "cityId": 5613862,
      "name": "01N41E27BADC02 Well",
      "country": {
        "__type": "Pointer",
        "className": "Continentscountriescities_Country",
        "objectId": "BXkZTl2omc"
      },
      "adminCode": "MT",
      "createdAt": "2020-05-15T16:17:58.686Z",
      "updatedAt": "2020-05-15T16:17:58.686Z"
    },
    {
      "objectId": "l3CKIwCIT9",
      "location": {
        "__type": "GeoPoint",
        "latitude": 45.81472,
        "longitude": -106.61975
      },
      "cityId": 5613863,
      "name": "01N41E27BADC03 Well",
      "country": {
        "__type": "Pointer",
        "className": "Continentscountriescities_Country",
        "objectId": "BXkZTl2omc"
      },
      "adminCode": "MT",
      "createdAt": "2020-05-15T16:17:58.791Z",
      "updatedAt": "2020-05-15T16:17:58.791Z"
    },
    {
      "objectId": "GCEu9ywBcV",
      "location": {
        "__type": "GeoPoint",
        "latitude": 45.81472,
        "longitude": -106.61975
      },
      "cityId": 5613864,
      "name": "01N41E27BADC04 Well",
      "country": {
        "__type": "Pointer",
        "className": "Continentscountriescities_Country",
        "objectId": "BXkZTl2omc"
      },
      "adminCode": "MT",
      "createdAt": "2020-05-15T16:17:58.925Z",
      "updatedAt": "2020-05-15T16:17:58.925Z"
    },
    {
      "objectId": "rbiUrHUfwk",
      "location": {
        "__type": "GeoPoint",
        "latitude": 45.81472,
        "longitude": -106.61975
      },
      "cityId": 5613865,
      "name": "01N41E27BADC05 Well",
      "country": {
        "__type": "Pointer",
        "className": "Continentscountriescities_Country",
        "objectId": "BXkZTl2omc"
      },
      "adminCode": "MT",
      "createdAt": "2020-05-15T16:17:59.044Z",
      "updatedAt": "2020-05-15T16:17:59.044Z"
    },
    {
      "objectId": "IFAxap4YqJ",
      "location": {
        "__type": "GeoPoint",
        "latitude": 45.81333,
        "longitude": -106.62169
      },
      "cityId": 5613866,
      "name": "01N41E27BDBA01 Well",
      "country": {
        "__type": "Pointer",
        "className": "Continentscountriescities_Country",
        "objectId": "BXkZTl2omc"
      },
      "adminCode": "MT",
      "createdAt": "2020-05-15T16:17:59.150Z",
      "updatedAt": "2020-05-15T16:17:59.150Z"
    },
    {
      "objectId": "LHLl4CtN2b",
      "location": {
        "__type": "GeoPoint",
        "latitude": 45.81333,
        "longitude": -106.62169
      },
      "cityId": 5613867,
      "name": "01N41E27BDBA02 Well",
      "country": {
        "__type": "Pointer",
        "className": "Continentscountriescities_Country",
        "objectId": "BXkZTl2omc"
      },
      "adminCode": "MT",
      "createdAt": "2020-05-15T16:17:59.261Z",
      "updatedAt": "2020-05-15T16:17:59.261Z"
    },
    {
      "objectId": "MZOpQZKhVX",
      "location": {
        "__type": "GeoPoint",
        "latitude": 45.81333,
        "longitude": -106.62169
      },
      "cityId": 5613868,
      "name": "01N41E27BDBA03 Well",
      "country": {
        "__type": "Pointer",
        "className": "Continentscountriescities_Country",
        "objectId": "BXkZTl2omc"
      },
      "adminCode": "MT",
      "createdAt": "2020-05-15T16:17:59.366Z",
      "updatedAt": "2020-05-15T16:17:59.366Z"
    },
    {
      "objectId": "oHYHhO4wy7",
      "location": {
        "__type": "GeoPoint",
        "latitude": 45.80888,
        "longitude": -106.61975
      },
      "cityId": 5613869,
      "name": "01N41E27CAAC01 Well",
      "country": {
        "__type": "Pointer",
        "className": "Continentscountriescities_Country",
        "objectId": "BXkZTl2omc"
      },
      "adminCode": "MT",
      "createdAt": "2020-05-15T16:17:59.490Z",
      "updatedAt": "2020-05-15T16:17:59.490Z"
    },
    {
      "objectId": "ACSbCxHVAV",
      "location": {
        "__type": "GeoPoint",
        "latitude": 45.80888,
        "longitude": -106.60947
      },
      "cityId": 5613870,
      "name": "01N41E27DAAC01 Well",
      "country": {
        "__type": "Pointer",
        "className": "Continentscountriescities_Country",
        "objectId": "BXkZTl2omc"
      },
      "adminCode": "MT",
      "createdAt": "2020-05-15T16:17:59.615Z",
      "updatedAt": "2020-05-15T16:17:59.615Z"
    },
    {
      "objectId": "2mGc5ZfWRu",
      "location": {
        "__type": "GeoPoint",
        "latitude": 45.80888,
        "longitude": -106.60947
      },
      "cityId": 5613871,
      "name": "01N41E27DAAC02 Well",
      "country": {
        "__type": "Pointer",
        "className": "Continentscountriescities_Country",
        "objectId": "BXkZTl2omc"
      },
      "adminCode": "MT",
      "createdAt": "2020-05-15T16:17:59.711Z",
      "updatedAt": "2020-05-15T16:17:59.711Z"
    },
    {
      "objectId": "qFwSOupKap",
      "location": {
        "__type": "GeoPoint",
        "latitude": 45.80972,
        "longitude": -106.61197
      },
      "cityId": 5613872,
      "name": "01N41E27DABB01 Well",
      "country": {
        "__type": "Pointer",
        "className": "Continentscountriescities_Country",
        "objectId": "BXkZTl2omc"
      },
      "adminCode": "MT",
      "createdAt": "2020-05-15T16:17:59.813Z",
      "updatedAt": "2020-05-15T16:17:59.813Z"
    },
    {
      "objectId": "VeCiFR4CVr",
      "location": {
        "__type": "GeoPoint",
        "latitude": 45.80972,
        "longitude": -106.61197
      },
      "cityId": 5613873,
      "name": "01N41E27DABB02 Well",
      "country": {
        "__type": "Pointer",
        "className": "Continentscountriescities_Country",
        "objectId": "BXkZTl2omc"
      },
      "adminCode": "MT",
      "createdAt": "2020-05-15T16:17:59.987Z",
      "updatedAt": "2020-05-15T16:17:59.987Z"
    },
    {
      "objectId": "7Kl3kVeGgq",
      "location": {
        "__type": "GeoPoint",
        "latitude": 45.8075,
        "longitude": -106.61141
      },
      "cityId": 5613874,
      "name": "01N41E27DACA01 Well",
      "country": {
        "__type": "Pointer",
        "className": "Continentscountriescities_Country",
        "objectId": "BXkZTl2omc"
      },
      "adminCode": "MT",
      "createdAt": "2020-05-15T16:18:00.189Z",
      "updatedAt": "2020-05-15T16:18:00.189Z"
    },
    {
      "objectId": "rUPQ1d2RAO",
      "location": {
        "__type": "GeoPoint",
        "latitude": 45.8075,
        "longitude": -106.60947
      },
      "cityId": 5613875,
      "name": "01N41E27DADC01 Well",
      "country": {
        "__type": "Pointer",
        "className": "Continentscountriescities_Country",
        "objectId": "BXkZTl2omc"
      },
      "adminCode": "MT",
      "createdAt": "2020-05-15T16:18:00.332Z",
      "updatedAt": "2020-05-15T16:18:00.332Z"
    },
    {
      "objectId": "foNjWte4Ov",
      "location": {
        "__type": "GeoPoint",
        "latitude": 45.80888,
        "longitude": -106.61391
      },
      "cityId": 5613876,
      "name": "01N41E27DBAD01 Well",
      "country": {
        "__type": "Pointer",
        "className": "Continentscountriescities_Country",
        "objectId": "BXkZTl2omc"
      },
      "adminCode": "MT",
      "createdAt": "2020-05-15T16:18:00.458Z",
      "updatedAt": "2020-05-15T16:18:00.458Z"
    },
    {
      "objectId": "EZIlpCFTvq",
      "location": {
        "__type": "GeoPoint",
        "latitude": 45.80777,
        "longitude": -106.61586
      },
      "cityId": 5613877,
      "name": "01N41E27DBDA01 Well",
      "country": {
        "__type": "Pointer",
        "className": "Continentscountriescities_Country",
        "objectId": "BXkZTl2omc"
      },
      "adminCode": "MT",
      "createdAt": "2020-05-15T16:18:00.581Z",
      "updatedAt": "2020-05-15T16:18:00.581Z"
    },
    {
      "objectId": "IfdigLbgJN",
      "location": {
        "__type": "GeoPoint",
        "latitude": 45.8075,
        "longitude": -106.61475
      },
      "cityId": 5613878,
      "name": "01N41E27DBDC01 Well",
      "country": {
        "__type": "Pointer",
        "className": "Continentscountriescities_Country",
        "objectId": "BXkZTl2omc"
      },
      "adminCode": "MT",
      "createdAt": "2020-05-15T16:18:00.688Z",
      "updatedAt": "2020-05-15T16:18:00.688Z"
    },
    {
      "objectId": "FF3ttmHZdG",
      "location": {
        "__type": "GeoPoint",
        "latitude": 45.80416,
        "longitude": -106.61586
      },
      "cityId": 5613879,
      "name": "01N41E27DCCA01 Well",
      "country": {
        "__type": "Pointer",
        "className": "Continentscountriescities_Country",
        "objectId": "BXkZTl2omc"
      },
      "adminCode": "MT",
      "createdAt": "2020-05-15T16:18:00.815Z",
      "updatedAt": "2020-05-15T16:18:00.815Z"
    },
    {
      "objectId": "6vxsZ8G3Ok",
      "location": {
        "__type": "GeoPoint",
        "latitude": 45.805,
        "longitude": -106.61002
      },
      "cityId": 5613880,
      "name": "01N41E27DDAC01 Well",
      "country": {
        "__type": "Pointer",
        "className": "Continentscountriescities_Country",
        "objectId": "BXkZTl2omc"
      },
      "adminCode": "MT",
      "createdAt": "2020-05-15T16:18:00.970Z",
      "updatedAt": "2020-05-15T16:18:00.970Z"
    },
    {
      "objectId": "LNv0MfwA14",
      "location": {
        "__type": "GeoPoint",
        "latitude": 45.805,
        "longitude": -106.61002
      },
      "cityId": 5613881,
      "name": "01N41E27DDAC02 Well",
      "country": {
        "__type": "Pointer",
        "className": "Continentscountriescities_Country",
        "objectId": "BXkZTl2omc"
      },
      "adminCode": "MT",
      "createdAt": "2020-05-15T16:18:01.059Z",
      "updatedAt": "2020-05-15T16:18:01.059Z"
    },
    {
      "objectId": "Aq2Tjsm0CE",
      "location": {
        "__type": "GeoPoint",
        "latitude": 45.805,
        "longitude": -106.61197
      },
      "cityId": 5613882,
      "name": "01N41E27DDBC01 Well",
      "country": {
        "__type": "Pointer",
        "className": "Continentscountriescities_Country",
        "objectId": "BXkZTl2omc"
      },
      "adminCode": "MT",
      "createdAt": "2020-05-15T16:18:01.186Z",
      "updatedAt": "2020-05-15T16:18:01.186Z"
    },
    {
      "objectId": "vCsfkqT1dJ",
      "location": {
        "__type": "GeoPoint",
        "latitude": 45.81111,
        "longitude": -106.64308
      },
      "cityId": 5613883,
      "name": "01N41E28BDCB01 Well",
      "country": {
        "__type": "Pointer",
        "className": "Continentscountriescities_Country",
        "objectId": "BXkZTl2omc"
      },
      "adminCode": "MT",
      "createdAt": "2020-05-15T16:18:01.335Z",
      "updatedAt": "2020-05-15T16:18:01.335Z"
    },
    {
      "objectId": "fRmrbvIPKL",
      "location": {
        "__type": "GeoPoint",
        "latitude": 45.81111,
        "longitude": -106.64308
      },
      "cityId": 5613884,
      "name": "01N41E28BDCB02 Well",
      "country": {
        "__type": "Pointer",
        "className": "Continentscountriescities_Country",
        "objectId": "BXkZTl2omc"
      },
      "adminCode": "MT",
      "createdAt": "2020-05-15T16:18:01.442Z",
      "updatedAt": "2020-05-15T16:18:01.442Z"
    },
    {
      "objectId": "9qGtvShgB4",
      "location": {
        "__type": "GeoPoint",
        "latitude": 45.81694,
        "longitude": -106.66586
      },
      "cityId": 5613885,
      "name": "01N41E29BBAA01 Well",
      "country": {
        "__type": "Pointer",
        "className": "Continentscountriescities_Country",
        "objectId": "BXkZTl2omc"
      },
      "adminCode": "MT",
      "createdAt": "2020-05-15T16:18:01.813Z",
      "updatedAt": "2020-05-15T16:18:01.813Z"
    },
    {
      "objectId": "trPTXD8Ux0",
      "location": {
        "__type": "GeoPoint",
        "latitude": 45.81694,
        "longitude": -106.66586
      },
      "cityId": 5613886,
      "name": "01N41E29BBAA02 Well",
      "country": {
        "__type": "Pointer",
        "className": "Continentscountriescities_Country",
        "objectId": "BXkZTl2omc"
      },
      "adminCode": "MT",
      "createdAt": "2020-05-15T16:18:02.033Z",
      "updatedAt": "2020-05-15T16:18:02.033Z"
    },
    {
      "objectId": "4DMhaUQoUe",
      "location": {
        "__type": "GeoPoint",
        "latitude": 45.81444,
        "longitude": -106.68864
      },
      "cityId": 5613887,
      "name": "01N41E30BBCD01 Well",
      "country": {
        "__type": "Pointer",
        "className": "Continentscountriescities_Country",
        "objectId": "BXkZTl2omc"
      },
      "adminCode": "MT",
      "createdAt": "2020-05-15T16:18:02.432Z",
      "updatedAt": "2020-05-15T16:18:02.432Z"
    },
    {
      "objectId": "6EpR7wBq2X",
      "location": {
        "__type": "GeoPoint",
        "latitude": 45.80111,
        "longitude": -106.67114
      },
      "cityId": 5613888,
      "name": "01N41E31AADA01 Well",
      "country": {
        "__type": "Pointer",
        "className": "Continentscountriescities_Country",
        "objectId": "BXkZTl2omc"
      },
      "adminCode": "MT",
      "createdAt": "2020-05-15T16:18:02.538Z",
      "updatedAt": "2020-05-15T16:18:02.538Z"
    },
    {
      "objectId": "eo2BPXrmVe",
      "location": {
        "__type": "GeoPoint",
        "latitude": 45.79749,
        "longitude": -106.64891
      },
      "cityId": 5613889,
      "name": "01N41E33BCCB01 Well",
      "country": {
        "__type": "Pointer",
        "className": "Continentscountriescities_Country",
        "objectId": "BXkZTl2omc"
      },
      "adminCode": "MT",
      "createdAt": "2020-05-15T16:18:02.659Z",
      "updatedAt": "2020-05-15T16:18:02.659Z"
    },
    {
      "objectId": "qIFbODTxqn",
      "location": {
        "__type": "GeoPoint",
        "latitude": 45.79666,
        "longitude": -106.60419
      },
      "cityId": 5613890,
      "name": "01N41E35BCDB01 Well",
      "country": {
        "__type": "Pointer",
        "className": "Continentscountriescities_Country",
        "objectId": "BXkZTl2omc"
      },
      "adminCode": "MT",
      "createdAt": "2020-05-15T16:18:02.818Z",
      "updatedAt": "2020-05-15T16:18:02.818Z"
    },
    {
      "objectId": "xt7AHhSlkw",
      "location": {
        "__type": "GeoPoint",
        "latitude": 45.79666,
        "longitude": -106.60419
      },
      "cityId": 5613891,
      "name": "01N41E35BCDB02 Well",
      "country": {
        "__type": "Pointer",
        "className": "Continentscountriescities_Country",
        "objectId": "BXkZTl2omc"
      },
      "adminCode": "MT",
      "createdAt": "2020-05-15T16:18:02.948Z",
      "updatedAt": "2020-05-15T16:18:02.948Z"
    },
    {
      "objectId": "cAD1OUslm6",
      "location": {
        "__type": "GeoPoint",
        "latitude": 45.79222,
        "longitude": -106.57502
      },
      "cityId": 5613892,
      "name": "01N41E36DCBA01 Well",
      "country": {
        "__type": "Pointer",
        "className": "Continentscountriescities_Country",
        "objectId": "BXkZTl2omc"
      },
      "adminCode": "MT",
      "createdAt": "2020-05-15T16:18:03.173Z",
      "updatedAt": "2020-05-15T16:18:03.173Z"
    },
    {
      "objectId": "FIn5mF7PfY",
      "location": {
        "__type": "GeoPoint",
        "latitude": 45.86333,
        "longitude": -106.45502
      },
      "cityId": 5613893,
      "name": "01N42E01CDB_01 Spring",
      "country": {
        "__type": "Pointer",
        "className": "Continentscountriescities_Country",
        "objectId": "BXkZTl2omc"
      },
      "adminCode": "MT",
      "createdAt": "2020-05-15T16:18:03.300Z",
      "updatedAt": "2020-05-15T16:18:03.300Z"
    },
    {
      "objectId": "kuvAFLPy52",
      "location": {
        "__type": "GeoPoint",
        "latitude": 45.87139,
        "longitude": -106.50474
      },
      "cityId": 5613894,
      "name": "01N42E04ACA_01 Spring",
      "country": {
        "__type": "Pointer",
        "className": "Continentscountriescities_Country",
        "objectId": "BXkZTl2omc"
      },
      "adminCode": "MT",
      "createdAt": "2020-05-15T16:18:03.506Z",
      "updatedAt": "2020-05-15T16:18:03.506Z"
    },
    {
      "objectId": "4oAZuKm2L9",
      "location": {
        "__type": "GeoPoint",
        "latitude": 45.86916,
        "longitude": -106.55697
      },
      "cityId": 5613895,
      "name": "01N42E06BDDD01 Well",
      "country": {
        "__type": "Pointer",
        "className": "Continentscountriescities_Country",
        "objectId": "BXkZTl2omc"
      },
      "adminCode": "MT",
      "createdAt": "2020-05-15T16:18:03.685Z",
      "updatedAt": "2020-05-15T16:18:03.685Z"
    },
    {
      "objectId": "D75WApMLst",
      "location": {
        "__type": "GeoPoint",
        "latitude": 45.86916,
        "longitude": -106.55697
      },
      "cityId": 5613896,
      "name": "01N42E06BDDD02 Well",
      "country": {
        "__type": "Pointer",
        "className": "Continentscountriescities_Country",
        "objectId": "BXkZTl2omc"
      },
      "adminCode": "MT",
      "createdAt": "2020-05-15T16:18:03.783Z",
      "updatedAt": "2020-05-15T16:18:03.783Z"
    },
    {
      "objectId": "ExaFc7E8hR",
      "location": {
        "__type": "GeoPoint",
        "latitude": 45.85277,
        "longitude": -106.56308
      },
      "cityId": 5613897,
      "name": "01N42E07CBAB01 Well",
      "country": {
        "__type": "Pointer",
        "className": "Continentscountriescities_Country",
        "objectId": "BXkZTl2omc"
      },
      "adminCode": "MT",
      "createdAt": "2020-05-15T16:18:03.900Z",
      "updatedAt": "2020-05-15T16:18:03.900Z"
    },
    {
      "objectId": "ReVKn7F5Nl",
      "location": {
        "__type": "GeoPoint",
        "latitude": 45.85222,
        "longitude": -106.56502
      },
      "cityId": 5613898,
      "name": "01N42E07CBBC01 Well",
      "country": {
        "__type": "Pointer",
        "className": "Continentscountriescities_Country",
        "objectId": "BXkZTl2omc"
      },
      "adminCode": "MT",
      "createdAt": "2020-05-15T16:18:04.238Z",
      "updatedAt": "2020-05-15T16:18:04.238Z"
    },
    {
      "objectId": "DU1pX5SwwN",
      "location": {
        "__type": "GeoPoint",
        "latitude": 45.85333,
        "longitude": -106.56252
      },
      "cityId": 5613899,
      "name": "01N42E07CCA_01 Well",
      "country": {
        "__type": "Pointer",
        "className": "Continentscountriescities_Country",
        "objectId": "BXkZTl2omc"
      },
      "adminCode": "MT",
      "createdAt": "2020-05-15T16:18:04.362Z",
      "updatedAt": "2020-05-15T16:18:04.362Z"
    },
    {
      "objectId": "VVtAIhQQ8Q",
      "location": {
        "__type": "GeoPoint",
        "latitude": 45.8475,
        "longitude": -106.50057
      },
      "cityId": 5613900,
      "name": "01N42E10CCDC01 Well",
      "country": {
        "__type": "Pointer",
        "className": "Continentscountriescities_Country",
        "objectId": "BXkZTl2omc"
      },
      "adminCode": "MT",
      "createdAt": "2020-05-15T16:18:04.511Z",
      "updatedAt": "2020-05-15T16:18:04.511Z"
    },
    {
      "objectId": "UPvyFP2Z9m",
      "location": {
        "__type": "GeoPoint",
        "latitude": 45.86055,
        "longitude": -106.45085
      },
      "cityId": 5613901,
      "name": "01N42E12ABBA01 Well",
      "country": {
        "__type": "Pointer",
        "className": "Continentscountriescities_Country",
        "objectId": "BXkZTl2omc"
      },
      "adminCode": "MT",
      "createdAt": "2020-05-15T16:18:04.619Z",
      "updatedAt": "2020-05-15T16:18:04.619Z"
    },
    {
      "objectId": "GLrHSDOaeV",
      "location": {
        "__type": "GeoPoint",
        "latitude": 45.84194,
        "longitude": -106.45974
      },
      "cityId": 5613902,
      "name": "01N42E13BCAC01 Well",
      "country": {
        "__type": "Pointer",
        "className": "Continentscountriescities_Country",
        "objectId": "BXkZTl2omc"
      },
      "adminCode": "MT",
      "createdAt": "2020-05-15T16:18:04.947Z",
      "updatedAt": "2020-05-15T16:18:04.947Z"
    },
    {
      "objectId": "oxrS8VHgeH",
      "location": {
        "__type": "GeoPoint",
        "latitude": 45.84,
        "longitude": -106.53752
      },
      "cityId": 5613904,
      "name": "01N42E17BDDC01 Well",
      "country": {
        "__type": "Pointer",
        "className": "Continentscountriescities_Country",
        "objectId": "BXkZTl2omc"
      },
      "adminCode": "MT",
      "createdAt": "2020-05-15T16:18:05.234Z",
      "updatedAt": "2020-05-15T16:18:05.234Z"
    },
    {
      "objectId": "uejZfBw4RO",
      "location": {
        "__type": "GeoPoint",
        "latitude": 45.83722,
        "longitude": -106.53113
      },
      "cityId": 5613905,
      "name": "01N42E17DBDA01 Well",
      "country": {
        "__type": "Pointer",
        "className": "Continentscountriescities_Country",
        "objectId": "BXkZTl2omc"
      },
      "adminCode": "MT",
      "createdAt": "2020-05-15T16:18:05.310Z",
      "updatedAt": "2020-05-15T16:18:05.310Z"
    },
    {
      "objectId": "wBbjxTyPY7",
      "location": {
        "__type": "GeoPoint",
        "latitude": 45.84611,
        "longitude": -106.5478
      },
      "cityId": 5613906,
      "name": "01N42E18AAAB01 Well",
      "country": {
        "__type": "Pointer",
        "className": "Continentscountriescities_Country",
        "objectId": "BXkZTl2omc"
      },
      "adminCode": "MT",
      "createdAt": "2020-05-15T16:18:05.454Z",
      "updatedAt": "2020-05-15T16:18:05.454Z"
    },
    {
      "objectId": "mBKb6E3c3G",
      "location": {
        "__type": "GeoPoint",
        "latitude": 45.84611,
        "longitude": -106.5478
      },
      "cityId": 5613907,
      "name": "01N42E18AAAB02 Well",
      "country": {
        "__type": "Pointer",
        "className": "Continentscountriescities_Country",
        "objectId": "BXkZTl2omc"
      },
      "adminCode": "MT",
      "createdAt": "2020-05-15T16:18:05.568Z",
      "updatedAt": "2020-05-15T16:18:05.568Z"
    },
    {
      "objectId": "Snu6w6FZvh",
      "location": {
        "__type": "GeoPoint",
        "latitude": 45.845,
        "longitude": -106.54641
      },
      "cityId": 5613908,
      "name": "01N42E18ADAB01 Well",
      "country": {
        "__type": "Pointer",
        "className": "Continentscountriescities_Country",
        "objectId": "BXkZTl2omc"
      },
      "adminCode": "MT",
      "createdAt": "2020-05-15T16:18:05.679Z",
      "updatedAt": "2020-05-15T16:18:05.679Z"
    },
    {
      "objectId": "fdWtdG3e02",
      "location": {
        "__type": "GeoPoint",
        "latitude": 45.83861,
        "longitude": -106.54669
      },
      "cityId": 5613909,
      "name": "01N42E18DAAB01 Well",
      "country": {
        "__type": "Pointer",
        "className": "Continentscountriescities_Country",
        "objectId": "BXkZTl2omc"
      },
      "adminCode": "MT",
      "createdAt": "2020-05-15T16:18:05.786Z",
      "updatedAt": "2020-05-15T16:18:05.786Z"
    },
    {
      "objectId": "JnhiQIx7OP",
      "location": {
        "__type": "GeoPoint",
        "latitude": 45.83861,
        "longitude": -106.54669
      },
      "cityId": 5613910,
      "name": "01N42E18DAAB02 Well",
      "country": {
        "__type": "Pointer",
        "className": "Continentscountriescities_Country",
        "objectId": "BXkZTl2omc"
      },
      "adminCode": "MT",
      "createdAt": "2020-05-15T16:18:05.951Z",
      "updatedAt": "2020-05-15T16:18:05.951Z"
    },
    {
      "objectId": "cTnOQOHfYy",
      "location": {
        "__type": "GeoPoint",
        "latitude": 45.875,
        "longitude": -106.61197
      },
      "cityId": 5613911,
      "name": "01N42E18DAAC01 Well",
      "country": {
        "__type": "Pointer",
        "className": "Continentscountriescities_Country",
        "objectId": "BXkZTl2omc"
      },
      "adminCode": "MT",
      "createdAt": "2020-05-15T16:18:06.078Z",
      "updatedAt": "2020-05-15T16:18:06.078Z"
    },
    {
      "objectId": "e8YxffXHTv",
      "location": {
        "__type": "GeoPoint",
        "latitude": 45.875,
        "longitude": -106.61197
      },
      "cityId": 5613912,
      "name": "01N42E18DAAC02 Well",
      "country": {
        "__type": "Pointer",
        "className": "Continentscountriescities_Country",
        "objectId": "BXkZTl2omc"
      },
      "adminCode": "MT",
      "createdAt": "2020-05-15T16:18:06.190Z",
      "updatedAt": "2020-05-15T16:18:06.190Z"
    },
    {
      "objectId": "ozIDNIBq9o",
      "location": {
        "__type": "GeoPoint",
        "latitude": 45.875,
        "longitude": -106.61197
      },
      "cityId": 5613913,
      "name": "01N42E18DAAC03 Well",
      "country": {
        "__type": "Pointer",
        "className": "Continentscountriescities_Country",
        "objectId": "BXkZTl2omc"
      },
      "adminCode": "MT",
      "createdAt": "2020-05-15T16:18:06.297Z",
      "updatedAt": "2020-05-15T16:18:06.297Z"
    },
    {
      "objectId": "TdL69cCguz",
      "location": {
        "__type": "GeoPoint",
        "latitude": 45.83777,
        "longitude": -106.54585
      },
      "cityId": 5613914,
      "name": "01N42E18DAAD01 Well",
      "country": {
        "__type": "Pointer",
        "className": "Continentscountriescities_Country",
        "objectId": "BXkZTl2omc"
      },
      "adminCode": "MT",
      "createdAt": "2020-05-15T16:18:06.423Z",
      "updatedAt": "2020-05-15T16:18:06.423Z"
    },
    {
      "objectId": "bp9poPC37c",
      "location": {
        "__type": "GeoPoint",
        "latitude": 45.83777,
        "longitude": -106.54585
      },
      "cityId": 5613915,
      "name": "01N42E18DAAD02 Well",
      "country": {
        "__type": "Pointer",
        "className": "Continentscountriescities_Country",
        "objectId": "BXkZTl2omc"
      },
      "adminCode": "MT",
      "createdAt": "2020-05-15T16:18:06.539Z",
      "updatedAt": "2020-05-15T16:18:06.539Z"
    },
    {
      "objectId": "jscjeduKsb",
      "location": {
        "__type": "GeoPoint",
        "latitude": 45.83777,
        "longitude": -106.54585
      },
      "cityId": 5613916,
      "name": "01N42E18DAAD03 Well",
      "country": {
        "__type": "Pointer",
        "className": "Continentscountriescities_Country",
        "objectId": "BXkZTl2omc"
      },
      "adminCode": "MT",
      "createdAt": "2020-05-15T16:18:06.669Z",
      "updatedAt": "2020-05-15T16:18:06.669Z"
    },
    {
      "objectId": "a7cX5ctfGb",
      "location": {
        "__type": "GeoPoint",
        "latitude": 45.83777,
        "longitude": -106.54585
      },
      "cityId": 5613917,
      "name": "01N42E18DAAD04 Well",
      "country": {
        "__type": "Pointer",
        "className": "Continentscountriescities_Country",
        "objectId": "BXkZTl2omc"
      },
      "adminCode": "MT",
      "createdAt": "2020-05-15T16:18:06.775Z",
      "updatedAt": "2020-05-15T16:18:06.775Z"
    },
    {
      "objectId": "QHHWCG3yEz",
      "location": {
        "__type": "GeoPoint",
        "latitude": 45.83777,
        "longitude": -106.54863
      },
      "cityId": 5613918,
      "name": "01N42E18DABD01 Well",
      "country": {
        "__type": "Pointer",
        "className": "Continentscountriescities_Country",
        "objectId": "BXkZTl2omc"
      },
      "adminCode": "MT",
      "createdAt": "2020-05-15T16:18:06.879Z",
      "updatedAt": "2020-05-15T16:18:06.879Z"
    },
    {
      "objectId": "h4m8dXzoxo",
      "location": {
        "__type": "GeoPoint",
        "latitude": 45.83777,
        "longitude": -106.54863
      },
      "cityId": 5613919,
      "name": "01N42E18DABD02 Well",
      "country": {
        "__type": "Pointer",
        "className": "Continentscountriescities_Country",
        "objectId": "BXkZTl2omc"
      },
      "adminCode": "MT",
      "createdAt": "2020-05-15T16:18:07.003Z",
      "updatedAt": "2020-05-15T16:18:07.003Z"
    },
    {
      "objectId": "D2jqQH1LTg",
      "location": {
        "__type": "GeoPoint",
        "latitude": 45.83777,
        "longitude": -106.54863
      },
      "cityId": 5613920,
      "name": "01N42E18DABD03 Well",
      "country": {
        "__type": "Pointer",
        "className": "Continentscountriescities_Country",
        "objectId": "BXkZTl2omc"
      },
      "adminCode": "MT",
      "createdAt": "2020-05-15T16:18:07.133Z",
      "updatedAt": "2020-05-15T16:18:07.133Z"
    },
    {
      "objectId": "yrsQ9D5YLf",
      "location": {
        "__type": "GeoPoint",
        "latitude": 45.83777,
        "longitude": -106.54863
      },
      "cityId": 5613921,
      "name": "01N42E18DABD04 Well",
      "country": {
        "__type": "Pointer",
        "className": "Continentscountriescities_Country",
        "objectId": "BXkZTl2omc"
      },
      "adminCode": "MT",
      "createdAt": "2020-05-15T16:18:07.551Z",
      "updatedAt": "2020-05-15T16:18:07.551Z"
    },
    {
      "objectId": "RF55PMPRQi",
      "location": {
        "__type": "GeoPoint",
        "latitude": 45.82389,
        "longitude": -106.55391
      },
      "cityId": 5613922,
      "name": "01N42E19DBBA01 Well",
      "country": {
        "__type": "Pointer",
        "className": "Continentscountriescities_Country",
        "objectId": "BXkZTl2omc"
      },
      "adminCode": "MT",
      "createdAt": "2020-05-15T16:18:07.738Z",
      "updatedAt": "2020-05-15T16:18:07.738Z"
    },
    {
      "objectId": "P27E4VoGFS",
      "location": {
        "__type": "GeoPoint",
        "latitude": 45.82361,
        "longitude": -106.49696
      },
      "cityId": 5613923,
      "name": "01N42E22CABD01 Well",
      "country": {
        "__type": "Pointer",
        "className": "Continentscountriescities_Country",
        "objectId": "BXkZTl2omc"
      },
      "adminCode": "MT",
      "createdAt": "2020-05-15T16:18:07.829Z",
      "updatedAt": "2020-05-15T16:18:07.829Z"
    },
    {
      "objectId": "LCgaceVtWg",
      "location": {
        "__type": "GeoPoint",
        "latitude": 45.81444,
        "longitude": -106.46196
      },
      "cityId": 5613924,
      "name": "01N42E25BBCC01 Well",
      "country": {
        "__type": "Pointer",
        "className": "Continentscountriescities_Country",
        "objectId": "BXkZTl2omc"
      },
      "adminCode": "MT",
      "createdAt": "2020-05-15T16:18:07.950Z",
      "updatedAt": "2020-05-15T16:18:07.950Z"
    },
    {
      "objectId": "SjkxJBJyE8",
      "location": {
        "__type": "GeoPoint",
        "latitude": 45.81111,
        "longitude": -106.45835
      },
      "cityId": 5613925,
      "name": "01N42E25BCDD01 Well",
      "country": {
        "__type": "Pointer",
        "className": "Continentscountriescities_Country",
        "objectId": "BXkZTl2omc"
      },
      "adminCode": "MT",
      "createdAt": "2020-05-15T16:18:08.073Z",
      "updatedAt": "2020-05-15T16:18:08.073Z"
    },
    {
      "objectId": "R9MWGr4HcN",
      "location": {
        "__type": "GeoPoint",
        "latitude": 45.81055,
        "longitude": -106.51613
      },
      "cityId": 5613926,
      "name": "01N42E28BDDC01 Well",
      "country": {
        "__type": "Pointer",
        "className": "Continentscountriescities_Country",
        "objectId": "BXkZTl2omc"
      },
      "adminCode": "MT",
      "createdAt": "2020-05-15T16:18:08.234Z",
      "updatedAt": "2020-05-15T16:18:08.234Z"
    },
    {
      "objectId": "zHTu0Ay7NE",
      "location": {
        "__type": "GeoPoint",
        "latitude": 45.80194,
        "longitude": -106.56613
      },
      "cityId": 5613927,
      "name": "01N42E31BBBC01 Well",
      "country": {
        "__type": "Pointer",
        "className": "Continentscountriescities_Country",
        "objectId": "BXkZTl2omc"
      },
      "adminCode": "MT",
      "createdAt": "2020-05-15T16:18:08.361Z",
      "updatedAt": "2020-05-15T16:18:08.361Z"
    },
    {
      "objectId": "GAd0PBAnib",
      "location": {
        "__type": "GeoPoint",
        "latitude": 45.79222,
        "longitude": -106.52585
      },
      "cityId": 5613928,
      "name": "01N42E32DADD01 Well",
      "country": {
        "__type": "Pointer",
        "className": "Continentscountriescities_Country",
        "objectId": "BXkZTl2omc"
      },
      "adminCode": "MT",
      "createdAt": "2020-05-15T16:18:08.537Z",
      "updatedAt": "2020-05-15T16:18:08.537Z"
    },
    {
      "objectId": "UUT0aECruy",
      "location": {
        "__type": "GeoPoint",
        "latitude": 45.79805,
        "longitude": -106.50946
      },
      "cityId": 5613929,
      "name": "01N42E33ADBC01 Well",
      "country": {
        "__type": "Pointer",
        "className": "Continentscountriescities_Country",
        "objectId": "BXkZTl2omc"
      },
      "adminCode": "MT",
      "createdAt": "2020-05-15T16:18:08.651Z",
      "updatedAt": "2020-05-15T16:18:08.651Z"
    },
    {
      "objectId": "Jll88BDS6a",
      "location": {
        "__type": "GeoPoint",
        "latitude": 45.78861,
        "longitude": -106.51724
      },
      "cityId": 5613930,
      "name": "01N42E33BDCA01 Well",
      "country": {
        "__type": "Pointer",
        "className": "Continentscountriescities_Country",
        "objectId": "BXkZTl2omc"
      },
      "adminCode": "MT",
      "createdAt": "2020-05-15T16:18:08.791Z",
      "updatedAt": "2020-05-15T16:18:08.791Z"
    },
    {
      "objectId": "6fdpAFSqHv",
      "location": {
        "__type": "GeoPoint",
        "latitude": 45.51138,
        "longitude": -106.48725
      },
      "cityId": 5613931,
      "name": "01N42E34AABA01 Well",
      "country": {
        "__type": "Pointer",
        "className": "Continentscountriescities_Country",
        "objectId": "BXkZTl2omc"
      },
      "adminCode": "MT",
      "createdAt": "2020-05-15T16:18:08.905Z",
      "updatedAt": "2020-05-15T16:18:08.905Z"
    },
    {
      "objectId": "VC2xjuvptN",
      "location": {
        "__type": "GeoPoint",
        "latitude": 45.79889,
        "longitude": -106.49057
      },
      "cityId": 5613932,
      "name": "01N42E34ACAB01 Well",
      "country": {
        "__type": "Pointer",
        "className": "Continentscountriescities_Country",
        "objectId": "BXkZTl2omc"
      },
      "adminCode": "MT",
      "createdAt": "2020-05-15T16:18:09.026Z",
      "updatedAt": "2020-05-15T16:18:09.026Z"
    },
    {
      "objectId": "fGT6pDmabl",
      "location": {
        "__type": "GeoPoint",
        "latitude": 45.86194,
        "longitude": -106.35279
      },
      "cityId": 5613933,
      "name": "01N43E02CCDA01 Well",
      "country": {
        "__type": "Pointer",
        "className": "Continentscountriescities_Country",
        "objectId": "BXkZTl2omc"
      },
      "adminCode": "MT",
      "createdAt": "2020-05-15T16:18:09.143Z",
      "updatedAt": "2020-05-15T16:18:09.143Z"
    },
    {
      "objectId": "u7XKv9ygHb",
      "location": {
        "__type": "GeoPoint",
        "latitude": 45.86944,
        "longitude": -106.3789
      },
      "cityId": 5613934,
      "name": "01N43E04ADDD01 Well",
      "country": {
        "__type": "Pointer",
        "className": "Continentscountriescities_Country",
        "objectId": "BXkZTl2omc"
      },
      "adminCode": "MT",
      "createdAt": "2020-05-15T16:18:09.258Z",
      "updatedAt": "2020-05-15T16:18:09.258Z"
    },
    {
      "objectId": "KKyKh3RbXA",
      "location": {
        "__type": "GeoPoint",
        "latitude": 45.85444,
        "longitude": -106.40863
      },
      "cityId": 5613935,
      "name": "01N43E08ACCA01 Well",
      "country": {
        "__type": "Pointer",
        "className": "Continentscountriescities_Country",
        "objectId": "BXkZTl2omc"
      },
      "adminCode": "MT",
      "createdAt": "2020-05-15T16:18:09.355Z",
      "updatedAt": "2020-05-15T16:18:09.355Z"
    },
    {
      "objectId": "cJ1S1hJPCl",
      "location": {
        "__type": "GeoPoint",
        "latitude": 45.4072,
        "longitude": -106.85505
      },
      "cityId": 5613936,
      "name": "01N43E08ACCD01 Well",
      "country": {
        "__type": "Pointer",
        "className": "Continentscountriescities_Country",
        "objectId": "BXkZTl2omc"
      },
      "adminCode": "MT",
      "createdAt": "2020-05-15T16:18:09.461Z",
      "updatedAt": "2020-05-15T16:18:09.461Z"
    },
    {
      "objectId": "1m6aDQm4yn",
      "location": {
        "__type": "GeoPoint",
        "latitude": 45.85472,
        "longitude": -106.40668
      },
      "cityId": 5613937,
      "name": "01N43E08ACDC01 Well",
      "country": {
        "__type": "Pointer",
        "className": "Continentscountriescities_Country",
        "objectId": "BXkZTl2omc"
      },
      "adminCode": "MT",
      "createdAt": "2020-05-15T16:18:09.599Z",
      "updatedAt": "2020-05-15T16:18:09.599Z"
    },
    {
      "objectId": "4Kr832n69Y",
      "location": {
        "__type": "GeoPoint",
        "latitude": 45.84778,
        "longitude": -106.37918
      },
      "cityId": 5613938,
      "name": "01N43E09DDDA01 Well",
      "country": {
        "__type": "Pointer",
        "className": "Continentscountriescities_Country",
        "objectId": "BXkZTl2omc"
      },
      "adminCode": "MT",
      "createdAt": "2020-05-15T16:18:09.708Z",
      "updatedAt": "2020-05-15T16:18:09.708Z"
    },
    {
      "objectId": "aIIZqh358u",
      "location": {
        "__type": "GeoPoint",
        "latitude": 45.84333,
        "longitude": -106.3639
      },
      "cityId": 5613939,
      "name": "01N43E15ACAA01 Well",
      "country": {
        "__type": "Pointer",
        "className": "Continentscountriescities_Country",
        "objectId": "BXkZTl2omc"
      },
      "adminCode": "MT",
      "createdAt": "2020-05-15T16:18:09.836Z",
      "updatedAt": "2020-05-15T16:18:09.836Z"
    },
    {
      "objectId": "NgUibRsnHT",
      "location": {
        "__type": "GeoPoint",
        "latitude": 45.84472,
        "longitude": -106.40363
      },
      "cityId": 5613940,
      "name": "01N43E17AACA01 Well",
      "country": {
        "__type": "Pointer",
        "className": "Continentscountriescities_Country",
        "objectId": "BXkZTl2omc"
      },
      "adminCode": "MT",
      "createdAt": "2020-05-15T16:18:09.940Z",
      "updatedAt": "2020-05-15T16:18:09.940Z"
    },
    {
      "objectId": "1Ttq8tv0jz",
      "location": {
        "__type": "GeoPoint",
        "latitude": 45.83611,
        "longitude": -106.4239
      },
      "cityId": 5613941,
      "name": "01N43E18DDBA01 Well",
      "country": {
        "__type": "Pointer",
        "className": "Continentscountriescities_Country",
        "objectId": "BXkZTl2omc"
      },
      "adminCode": "MT",
      "createdAt": "2020-05-15T16:18:10.115Z",
      "updatedAt": "2020-05-15T16:18:10.115Z"
    },
    {
      "objectId": "WZxJcTnDQD",
      "location": {
        "__type": "GeoPoint",
        "latitude": 45.81778,
        "longitude": -106.41807
      },
      "cityId": 5613942,
      "name": "01N43E20CCCD01 Well",
      "country": {
        "__type": "Pointer",
        "className": "Continentscountriescities_Country",
        "objectId": "BXkZTl2omc"
      },
      "adminCode": "MT",
      "createdAt": "2020-05-15T16:18:10.244Z",
      "updatedAt": "2020-05-15T16:18:10.244Z"
    },
    {
      "objectId": "xTldArgVk9",
      "location": {
        "__type": "GeoPoint",
        "latitude": 45.8225,
        "longitude": -106.39751
      },
      "cityId": 5613943,
      "name": "01N43E21CBCA01 Well",
      "country": {
        "__type": "Pointer",
        "className": "Continentscountriescities_Country",
        "objectId": "BXkZTl2omc"
      },
      "adminCode": "MT",
      "createdAt": "2020-05-15T16:18:10.317Z",
      "updatedAt": "2020-05-15T16:18:10.317Z"
    },
    {
      "objectId": "pMbNYTg16D",
      "location": {
        "__type": "GeoPoint",
        "latitude": 45.8325,
        "longitude": -106.3739
      },
      "cityId": 5613944,
      "name": "01N43E22BBAA01 Well",
      "country": {
        "__type": "Pointer",
        "className": "Continentscountriescities_Country",
        "objectId": "BXkZTl2omc"
      },
      "adminCode": "MT",
      "createdAt": "2020-05-15T16:18:10.436Z",
      "updatedAt": "2020-05-15T16:18:10.436Z"
    },
    {
      "objectId": "FqLnVOaPq6",
      "location": {
        "__type": "GeoPoint",
        "latitude": 45.82056,
        "longitude": -106.31779
      },
      "cityId": 5613945,
      "name": "01N43E24DDAA01 Well",
      "country": {
        "__type": "Pointer",
        "className": "Continentscountriescities_Country",
        "objectId": "BXkZTl2omc"
      },
      "adminCode": "MT",
      "createdAt": "2020-05-15T16:18:10.532Z",
      "updatedAt": "2020-05-15T16:18:10.532Z"
    },
    {
      "objectId": "oHDBQ9liHF",
      "location": {
        "__type": "GeoPoint",
        "latitude": 45.81444,
        "longitude": -106.3339
      },
      "cityId": 5613946,
      "name": "01N43E25BBDC01 Well",
      "country": {
        "__type": "Pointer",
        "className": "Continentscountriescities_Country",
        "objectId": "BXkZTl2omc"
      },
      "adminCode": "MT",
      "createdAt": "2020-05-15T16:18:10.663Z",
      "updatedAt": "2020-05-15T16:18:10.663Z"
    },
    {
      "objectId": "h3bYuPEOPT",
      "location": {
        "__type": "GeoPoint",
        "latitude": 45.81361,
        "longitude": -106.35474
      },
      "cityId": 5613947,
      "name": "01N43E26BCAB01 Well",
      "country": {
        "__type": "Pointer",
        "className": "Continentscountriescities_Country",
        "objectId": "BXkZTl2omc"
      },
      "adminCode": "MT",
      "createdAt": "2020-05-15T16:18:10.790Z",
      "updatedAt": "2020-05-15T16:18:10.790Z"
    },
    {
      "objectId": "jXd6socn3j",
      "location": {
        "__type": "GeoPoint",
        "latitude": 45.80389,
        "longitude": -106.37029
      },
      "cityId": 5613948,
      "name": "01N43E27CDDD01 Well",
      "country": {
        "__type": "Pointer",
        "className": "Continentscountriescities_Country",
        "objectId": "BXkZTl2omc"
      },
      "adminCode": "MT",
      "createdAt": "2020-05-15T16:18:10.883Z",
      "updatedAt": "2020-05-15T16:18:10.883Z"
    },
    {
      "objectId": "IEdVydvskW",
      "location": {
        "__type": "GeoPoint",
        "latitude": 45.81167,
        "longitude": -106.41085
      },
      "cityId": 5613949,
      "name": "01N43E29BCDA01 Well",
      "country": {
        "__type": "Pointer",
        "className": "Continentscountriescities_Country",
        "objectId": "BXkZTl2omc"
      },
      "adminCode": "MT",
      "createdAt": "2020-05-15T16:18:10.994Z",
      "updatedAt": "2020-05-15T16:18:10.994Z"
    },
    {
      "objectId": "HmIijmEg6l",
      "location": {
        "__type": "GeoPoint",
        "latitude": 45.815,
        "longitude": -106.43835
      },
      "cityId": 5613950,
      "name": "01N43E30BBDB01 Well",
      "country": {
        "__type": "Pointer",
        "className": "Continentscountriescities_Country",
        "objectId": "BXkZTl2omc"
      },
      "adminCode": "MT",
      "createdAt": "2020-05-15T16:18:11.194Z",
      "updatedAt": "2020-05-15T16:18:11.194Z"
    },
    {
      "objectId": "YKb712BKXk",
      "location": {
        "__type": "GeoPoint",
        "latitude": 45.79805,
        "longitude": -106.42502
      },
      "cityId": 5613951,
      "name": "01N43E31ADBC01 Well",
      "country": {
        "__type": "Pointer",
        "className": "Continentscountriescities_Country",
        "objectId": "BXkZTl2omc"
      },
      "adminCode": "MT",
      "createdAt": "2020-05-15T16:18:11.360Z",
      "updatedAt": "2020-05-15T16:18:11.360Z"
    },
    {
      "objectId": "SMK0sLirOf",
      "location": {
        "__type": "GeoPoint",
        "latitude": 45.79944,
        "longitude": -106.4339
      },
      "cityId": 5613952,
      "name": "01N43E31BADC01 Well",
      "country": {
        "__type": "Pointer",
        "className": "Continentscountriescities_Country",
        "objectId": "BXkZTl2omc"
      },
      "adminCode": "MT",
      "createdAt": "2020-05-15T16:18:11.467Z",
      "updatedAt": "2020-05-15T16:18:11.467Z"
    },
    {
      "objectId": "4v5xayrPe5",
      "location": {
        "__type": "GeoPoint",
        "latitude": 45.79167,
        "longitude": -106.40029
      },
      "cityId": 5613953,
      "name": "01N43E32DDAA01 Well",
      "country": {
        "__type": "Pointer",
        "className": "Continentscountriescities_Country",
        "objectId": "BXkZTl2omc"
      },
      "adminCode": "MT",
      "createdAt": "2020-05-15T16:18:11.590Z",
      "updatedAt": "2020-05-15T16:18:11.590Z"
    },
    {
      "objectId": "pY0nTju8sr",
      "location": {
        "__type": "GeoPoint",
        "latitude": 45.80278,
        "longitude": -106.39918
      },
      "cityId": 5613954,
      "name": "01N43E33BBBB01 Well",
      "country": {
        "__type": "Pointer",
        "className": "Continentscountriescities_Country",
        "objectId": "BXkZTl2omc"
      },
      "adminCode": "MT",
      "createdAt": "2020-05-15T16:18:11.711Z",
      "updatedAt": "2020-05-15T16:18:11.711Z"
    },
    {
      "objectId": "Fp7RM4AMYx",
      "location": {
        "__type": "GeoPoint",
        "latitude": 45.79972,
        "longitude": -106.37585
      },
      "cityId": 5613955,
      "name": "01N43E34BBDC01 Spring",
      "country": {
        "__type": "Pointer",
        "className": "Continentscountriescities_Country",
        "objectId": "BXkZTl2omc"
      },
      "adminCode": "MT",
      "createdAt": "2020-05-15T16:18:11.833Z",
      "updatedAt": "2020-05-15T16:18:11.833Z"
    },
    {
      "objectId": "HmwHriX5sl",
      "location": {
        "__type": "GeoPoint",
        "latitude": 45.79806,
        "longitude": -106.33196
      },
      "cityId": 5613956,
      "name": "01N43E36BDAC01 Well",
      "country": {
        "__type": "Pointer",
        "className": "Continentscountriescities_Country",
        "objectId": "BXkZTl2omc"
      },
      "adminCode": "MT",
      "createdAt": "2020-05-15T16:18:11.927Z",
      "updatedAt": "2020-05-15T16:18:11.927Z"
    },
    {
      "objectId": "z3nPocCVim",
      "location": {
        "__type": "GeoPoint",
        "latitude": 45.87222,
        "longitude": -106.20001
      },
      "cityId": 5613957,
      "name": "01N44E01ACBA01 Well",
      "country": {
        "__type": "Pointer",
        "className": "Continentscountriescities_Country",
        "objectId": "BXkZTl2omc"
      },
      "adminCode": "MT",
      "createdAt": "2020-05-15T16:18:12.034Z",
      "updatedAt": "2020-05-15T16:18:12.034Z"
    },
    {
      "objectId": "ZbTABRiDbV",
      "location": {
        "__type": "GeoPoint",
        "latitude": 45.86722,
        "longitude": -106.21084
      },
      "cityId": 5613958,
      "name": "01N44E01CBBD01 Well",
      "country": {
        "__type": "Pointer",
        "className": "Continentscountriescities_Country",
        "objectId": "BXkZTl2omc"
      },
      "adminCode": "MT",
      "createdAt": "2020-05-15T16:18:12.157Z",
      "updatedAt": "2020-05-15T16:18:12.157Z"
    },
    {
      "objectId": "llHAab0uBE",
      "location": {
        "__type": "GeoPoint",
        "latitude": 45.87028,
        "longitude": -106.23195
      },
      "cityId": 5613959,
      "name": "01N44E02BCBD01 Well",
      "country": {
        "__type": "Pointer",
        "className": "Continentscountriescities_Country",
        "objectId": "BXkZTl2omc"
      },
      "adminCode": "MT",
      "createdAt": "2020-05-15T16:18:12.261Z",
      "updatedAt": "2020-05-15T16:18:12.261Z"
    },
    {
      "objectId": "0CTEKo47cZ",
      "location": {
        "__type": "GeoPoint",
        "latitude": 45.86722,
        "longitude": -106.25723
      },
      "cityId": 5613960,
      "name": "01N44E04DABD01 Well",
      "country": {
        "__type": "Pointer",
        "className": "Continentscountriescities_Country",
        "objectId": "BXkZTl2omc"
      },
      "adminCode": "MT",
      "createdAt": "2020-05-15T16:18:12.369Z",
      "updatedAt": "2020-05-15T16:18:12.369Z"
    },
    {
      "objectId": "isNwEXIinS",
      "location": {
        "__type": "GeoPoint",
        "latitude": 45.86472,
        "longitude": -106.30834
      },
      "cityId": 5613961,
      "name": "01N44E06CDAB01 Well",
      "country": {
        "__type": "Pointer",
        "className": "Continentscountriescities_Country",
        "objectId": "BXkZTl2omc"
      },
      "adminCode": "MT",
      "createdAt": "2020-05-15T16:18:12.502Z",
      "updatedAt": "2020-05-15T16:18:12.502Z"
    },
    {
      "objectId": "m4aYbBTtl1",
      "location": {
        "__type": "GeoPoint",
        "latitude": 45.85917,
        "longitude": -106.29723
      },
      "cityId": 5613962,
      "name": "01N44E07AADA01 Well",
      "country": {
        "__type": "Pointer",
        "className": "Continentscountriescities_Country",
        "objectId": "BXkZTl2omc"
      },
      "adminCode": "MT",
      "createdAt": "2020-05-15T16:18:12.584Z",
      "updatedAt": "2020-05-15T16:18:12.584Z"
    },
    {
      "objectId": "xTCkUaEQPf",
      "location": {
        "__type": "GeoPoint",
        "latitude": 45.855,
        "longitude": -106.28612
      },
      "cityId": 5613963,
      "name": "01N44E08ACCB01 Well",
      "country": {
        "__type": "Pointer",
        "className": "Continentscountriescities_Country",
        "objectId": "BXkZTl2omc"
      },
      "adminCode": "MT",
      "createdAt": "2020-05-15T16:18:12.693Z",
      "updatedAt": "2020-05-15T16:18:12.693Z"
    },
    {
      "objectId": "hwJmr0NkCm",
      "location": {
        "__type": "GeoPoint",
        "latitude": 45.85945,
        "longitude": -106.24084
      },
      "cityId": 5613964,
      "name": "01N44E10ABAC01 Well",
      "country": {
        "__type": "Pointer",
        "className": "Continentscountriescities_Country",
        "objectId": "BXkZTl2omc"
      },
      "adminCode": "MT",
      "createdAt": "2020-05-15T16:18:12.795Z",
      "updatedAt": "2020-05-15T16:18:12.795Z"
    },
    {
      "objectId": "NY7wmrrPRv",
      "location": {
        "__type": "GeoPoint",
        "latitude": 45.85167,
        "longitude": -106.21056
      },
      "cityId": 5613965,
      "name": "01N44E12CBCA01 Well",
      "country": {
        "__type": "Pointer",
        "className": "Continentscountriescities_Country",
        "objectId": "BXkZTl2omc"
      },
      "adminCode": "MT",
      "createdAt": "2020-05-15T16:18:12.976Z",
      "updatedAt": "2020-05-15T16:18:12.976Z"
    },
    {
      "objectId": "mRyrzBd8Qd",
      "location": {
        "__type": "GeoPoint",
        "latitude": 45.85111,
        "longitude": -106.21029
      },
      "cityId": 5613966,
      "name": "01N44E12CBCD01 Well",
      "country": {
        "__type": "Pointer",
        "className": "Continentscountriescities_Country",
        "objectId": "BXkZTl2omc"
      },
      "adminCode": "MT",
      "createdAt": "2020-05-15T16:18:13.094Z",
      "updatedAt": "2020-05-15T16:18:13.094Z"
    },
    {
      "objectId": "1Imfk7Na0N",
      "location": {
        "__type": "GeoPoint",
        "latitude": 45.85139,
        "longitude": -106.21001
      },
      "cityId": 5613967,
      "name": "01N44E12CBCD02 Well",
      "country": {
        "__type": "Pointer",
        "className": "Continentscountriescities_Country",
        "objectId": "BXkZTl2omc"
      },
      "adminCode": "MT",
      "createdAt": "2020-05-15T16:18:13.209Z",
      "updatedAt": "2020-05-15T16:18:13.209Z"
    },
    {
      "objectId": "X2F4acOmR5",
      "location": {
        "__type": "GeoPoint",
        "latitude": 45.85139,
        "longitude": -106.21029
      },
      "cityId": 5613968,
      "name": "01N44E12CBCD03 Well",
      "country": {
        "__type": "Pointer",
        "className": "Continentscountriescities_Country",
        "objectId": "BXkZTl2omc"
      },
      "adminCode": "MT",
      "createdAt": "2020-05-15T16:18:13.304Z",
      "updatedAt": "2020-05-15T16:18:13.304Z"
    },
    {
      "objectId": "cIavMw9ToO",
      "location": {
        "__type": "GeoPoint",
        "latitude": 45.84833,
        "longitude": -106.20779
      },
      "cityId": 5613969,
      "name": "01N44E12C___01 Well",
      "country": {
        "__type": "Pointer",
        "className": "Continentscountriescities_Country",
        "objectId": "BXkZTl2omc"
      },
      "adminCode": "MT",
      "createdAt": "2020-05-15T16:18:13.457Z",
      "updatedAt": "2020-05-15T16:18:13.457Z"
    },
    {
      "objectId": "ylq535P4Kg",
      "location": {
        "__type": "GeoPoint",
        "latitude": 45.84333,
        "longitude": -106.23029
      },
      "cityId": 5613970,
      "name": "01N44E14BBDC01 Well",
      "country": {
        "__type": "Pointer",
        "className": "Continentscountriescities_Country",
        "objectId": "BXkZTl2omc"
      },
      "adminCode": "MT",
      "createdAt": "2020-05-15T16:18:13.668Z",
      "updatedAt": "2020-05-15T16:18:13.668Z"
    },
    {
      "objectId": "FiumYzQBBl",
      "location": {
        "__type": "GeoPoint",
        "latitude": 45.84333,
        "longitude": -106.23056
      },
      "cityId": 5613971,
      "name": "01N44E14BBDC02 Well",
      "country": {
        "__type": "Pointer",
        "className": "Continentscountriescities_Country",
        "objectId": "BXkZTl2omc"
      },
      "adminCode": "MT",
      "createdAt": "2020-05-15T16:18:13.784Z",
      "updatedAt": "2020-05-15T16:18:13.784Z"
    },
    {
      "objectId": "VhiuaK6FGr",
      "location": {
        "__type": "GeoPoint",
        "latitude": 45.84222,
        "longitude": -106.23029
      },
      "cityId": 5613972,
      "name": "01N44E14BCAB01 Well",
      "country": {
        "__type": "Pointer",
        "className": "Continentscountriescities_Country",
        "objectId": "BXkZTl2omc"
      },
      "adminCode": "MT",
      "createdAt": "2020-05-15T16:18:14.090Z",
      "updatedAt": "2020-05-15T16:18:14.090Z"
    },
    {
      "objectId": "YWdv5H4iep",
      "location": {
        "__type": "GeoPoint",
        "latitude": 45.83722,
        "longitude": -106.26223
      },
      "cityId": 5613973,
      "name": "01N44E16DBDB01 Well",
      "country": {
        "__type": "Pointer",
        "className": "Continentscountriescities_Country",
        "objectId": "BXkZTl2omc"
      },
      "adminCode": "MT",
      "createdAt": "2020-05-15T16:18:14.345Z",
      "updatedAt": "2020-05-15T16:18:14.345Z"
    },
    {
      "objectId": "CTwPckGgUo",
      "location": {
        "__type": "GeoPoint",
        "latitude": 45.84583,
        "longitude": -106.27612
      },
      "cityId": 5613974,
      "name": "01N44E17AAAD01 Well",
      "country": {
        "__type": "Pointer",
        "className": "Continentscountriescities_Country",
        "objectId": "BXkZTl2omc"
      },
      "adminCode": "MT",
      "createdAt": "2020-05-15T16:18:14.457Z",
      "updatedAt": "2020-05-15T16:18:14.457Z"
    },
    {
      "objectId": "KtsZvs5vvr",
      "location": {
        "__type": "GeoPoint",
        "latitude": 45.84444,
        "longitude": -106.30057
      },
      "cityId": 5613975,
      "name": "01N44E18AACB01 Well",
      "country": {
        "__type": "Pointer",
        "className": "Continentscountriescities_Country",
        "objectId": "BXkZTl2omc"
      },
      "adminCode": "MT",
      "createdAt": "2020-05-15T16:18:14.571Z",
      "updatedAt": "2020-05-15T16:18:14.571Z"
    },